$GPRMC,050551.200,A,2450.5097,N,12112.0539,E,0.00,0.0,210625,,,A*5C
$RC3,050551.200,,-0.031,0.079,-0.993,,,,0.0,,0.0,72.0,0.0,0.0,25.60,0,0.00,10.80*26
$GPRMC,050551.300,A,2450.5097,N,12112.0539,E,0.00,0.0,210625,,,A*5D
$RC3,050551.300,,-0.031,0.079,-0.993,,,,0.0,,0.0,72.0,0.0,0.0,25.60,0,0.00,10.80*27
$GPRMC,050551.400,A,2450.5097,N,12112.0539,E,0.00,0.0,210625,,,A*5A
$RC3,050551.400,,-0.031,0.079,-0.993,,,,0.0,,0.0,72.0,0.0,0.0,25.60,0,0.00,10.80*20
$GPRMC,050551.400,A,2450.5097,N,12112.0539,E,0.00,0.0,210625,,,A*5A
$RC3,050551.400,,-0.031,0.079,-0.993,,,,0.0,,0.0,72.0,0.0,0.0,25.60,0,0.00,10.80*20
$GPRMC,050551.500,A,2450.5097,N,12112.0539,E,0.00,0.0,210625,,,A*5B
$RC3,050551.500,,-0.031,0.079,-0.993,,,,0.0,,0.0,72.0,0.0,0.0,25.60,0,0.00,10.80*21
$GPRMC,050551.500,A,2450.5097,N,12112.0539,E,0.00,0.0,210625,,,A*5B
$RC3,050551.500,,-0.031,0.079,-0.993,,,,0.0,,0.0,72.0,0.0,0.0,25.60,0,0.00,10.80*21
$GPRMC,050551.600,A,2450.5097,N,12112.0539,E,0.00,0.0,210625,,,A*58
$RC3,050551.600,,-0.031,0.079,-0.993,,,,0.0,,0.0,72.0,0.0,0.0,25.60,0,0.00,10.80*22
$GPRMC,050551.700,A,2450.5097,N,12112.0539,E,0.00,0.0,210625,,,A*59
$RC3,050551.700,,-0.031,0.079,-0.993,,,,0.0,,0.0,72.0,0.0,0.0,25.60,0,0.00,10.80*23
$GPRMC,050551.700,A,2450.5097,N,12112.0539,E,0.00,0.0,210625,,,A*59
$RC3,050551.700,,-0.031,0.079,-0.993,,,,0.0,,0.0,72.0,0.0,0.0,25.60,0,0.00,10.80*23
$GPRMC,050551.800,A,2450.5097,N,12112.0539,E,0.00,0.0,210625,,,A*56
$RC3,050551.800,,-0.031,0.079,-0.993,,,,0.0,,0.0,72.0,0.0,0.0,25.60,0,0.00,10.80*2C
$GPRMC,050551.900,A,2450.5097,N,12112.0539,E,0.00,0.0,210625,,,A*57
$RC3,050551.900,,-0.031,0.079,-0.993,,,,0.0,,0.0,72.0,0.0,0.0,25.60,0,0.00,10.80*2D
$GPRMC,050551.900,A,2450.5097,N,12112.0539,E,0.00,0.0,210625,,,A*57
$RC3,050551.900,,-0.031,0.079,-0.993,,,,0.0,,0.0,72.0,0.0,0.0,25.60,0,0.00,10.80*2D
$GPRMC,050552.000,A,2450.5097,N,12112.0539,E,0.00,0.0,210625,,,A*5D
$RC3,050552.000,,-0.031,0.079,-0.993,,,,0.0,,0.0,72.0,0.0,0.0,25.60,0,0.00,10.80*27
$GPRMC,050552.000,A,2450.5097,N,12112.0539,E,0.00,0.0,210625,,,A*5D
$RC3,050552.000,,-0.031,0.079,-0.993,,,,0.0,,0.0,72.0,0.0,0.0,25.60,0,0.00,10.80*27
$GPRMC,050552.100,A,2450.5097,N,12112.0539,E,0.00,0.0,210625,,,A*5C
$RC3,050552.100,,-0.031,0.079,-0.993,,,,0.0,,0.0,72.0,0.0,0.0,25.60,0,0.00,10.80*26
$GPRMC,050552.200,A,2450.5097,N,12112.0539,E,0.00,0.0,210625,,,A*5F
$RC3,050552.200,,-0.031,0.079,-0.993,,,,0.0,,0.0,72.0,0.0,0.0,25.60,0,0.00,10.80*25
$GPRMC,050552.200,A,2450.5097,N,12112.0539,E,0.00,0.0,210625,,,A*5F
$RC3,050552.200,,-0.031,0.079,-0.993,,,,0.0,,0.0,72.0,0.0,0.0,25.60,0,0.00,10.80*25
$GPRMC,050552.300,A,2450.5097,N,12112.0539,E,0.00,0.0,210625,,,A*5E
$RC3,050552.300,,-0.031,0.079,-0.993,,,,0.0,,0.0,72.0,0.0,0.0,25.60,0,0.00,10.80*24
$GPRMC,050552.400,A,2450.5097,N,12112.0539,E,0.00,0.0,210625,,,A*59
$RC3,050552.400,,-0.031,0.079,-0.993,,,,0.0,,0.0,72.0,0.0,0.0,25.60,0,0.00,10.80*23
$GPRMC,050552.400,A,2450.5097,N,12112.0539,E,0.00,0.0,210625,,,A*59
$RC3,050552.400,,-0.031,0.079,-0.993,,,,0.0,,0.0,72.0,0.0,0.0,25.60,0,0.00,10.80*23
$GPRMC,050552.500,A,2450.5097,N,12112.0539,E,0.00,0.0,210625,,,A*58
$RC3,050552.500,,-0.031,0.079,-0.993,,,,0.0,,0.0,72.0,0.0,0.0,25.60,0,0.00,10.80*22
$GPRMC,050552.500,A,2450.5097,N,12112.0539,E,0.00,0.0,210625,,,A*58
$RC3,050552.500,,-0.031,0.079,-0.993,,,,0.0,,0.0,72.0,0.0,0.0,25.60,0,0.00,10.80*22
$GPRMC,050552.600,A,2450.5097,N,12112.0539,E,0.00,0.0,210625,,,A*5B
$RC3,050552.600,,-0.031,0.079,-0.993,,,,0.0,,0.0,72.0,0.0,0.0,25.60,0,0.00,10.80*21
$GPRMC,050552.700,A,2450.5097,N,12112.0539,E,0.00,0.0,210625,,,A*5A
$RC3,050552.700,,-0.031,0.079,-0.993,,,,0.0,,0.0,72.0,0.0,0.0,25.60,0,0.00,10.80*20
$GPRMC,050552.700,A,2450.5097,N,12112.0539,E,0.00,0.0,210625,,,A*5A
$RC3,050552.700,,-0.031,0.079,-0.993,,,,0.0,,0.0,72.0,0.0,0.0,25.60,0,0.00,10.80*20
$GPRMC,050552.800,A,2450.5097,N,12112.0540,E,0.00,0.0,210625,,,A*5B
$RC3,050552.800,,-0.031,0.079,-0.993,,,,0.0,,0.0,72.0,0.0,0.0,25.60,0,0.00,10.80*2F
$GPRMC,050552.900,A,2450.5097,N,12112.0540,E,0.00,0.0,210625,,,A*5A
$RC3,050552.900,,-0.031,0.079,-0.993,,,,0.0,,0.0,72.0,0.0,0.0,25.60,0,0.00,10.80*2E
$GPRMC,050552.900,A,2450.5097,N,12112.0540,E,0.00,0.0,210625,,,A*5A
$RC3,050552.900,,-0.031,0.079,-0.993,,,,0.0,,0.0,72.0,0.0,0.0,25.60,0,0.00,10.80*2E
$GPRMC,050553.000,A,2450.5097,N,12112.0540,E,0.00,0.0,210625,,,A*52
$RC3,050553.000,,-0.031,0.079,-0.993,,,,0.0,,0.0,72.0,0.0,0.0,25.60,0,0.00,10.80*26
$GPRMC,050553.000,A,2450.5097,N,12112.0540,E,0.00,0.0,210625,,,A*52
$RC3,050553.000,,-0.031,0.079,-0.993,,,,0.0,,0.0,72.0,0.0,0.0,25.60,0,0.00,10.80*26
$GPRMC,050553.100,A,2450.5097,N,12112.0540,E,0.00,0.0,210625,,,A*53
$RC3,050553.100,,-0.031,0.079,-0.993,,,,0.0,,0.0,72.0,0.0,0.0,25.60,0,0.00,10.80*27
$GPRMC,050553.200,A,2450.5097,N,12112.0540,E,0.00,0.0,210625,,,A*50
$RC3,050553.200,,-0.031,0.079,-0.993,,,,0.0,,0.0,72.0,0.0,0.0,25.60,0,0.00,10.70*2B
$GPRMC,050553.200,A,2450.5097,N,12112.0540,E,0.00,0.0,210625,,,A*50
$RC3,050553.200,,-0.031,0.079,-0.993,,,,0.0,,0.0,72.0,0.0,0.0,25.60,0,0.00,10.80*24
$GPRMC,050553.300,A,2450.5097,N,12112.0540,E,0.00,0.0,210625,,,A*51
$RC3,050553.300,,-0.031,0.079,-0.993,,,,0.0,,0.0,72.0,0.0,0.0,25.60,0,0.00,10.80*25
$GPRMC,050553.400,A,2450.5097,N,12112.0540,E,0.00,0.0,210625,,,A*56
$RC3,050553.400,,-0.031,0.079,-0.993,,,,0.0,,0.0,72.0,0.0,0.0,25.60,0,0.00,10.80*22
$GPRMC,050553.400,A,2450.5097,N,12112.0540,E,0.00,0.0,210625,,,A*56
$RC3,050553.400,,-0.031,0.079,-0.993,,,,0.0,,0.0,72.0,0.0,0.0,25.60,0,0.00,10.80*22
$GPRMC,050553.500,A,2450.5097,N,12112.0540,E,0.00,0.0,210625,,,A*57
$RC3,050553.500,,-0.031,0.079,-0.993,,,,0.0,,0.0,72.0,0.0,0.0,25.60,0,0.00,10.80*23
$GPRMC,050553.500,A,2450.5097,N,12112.0540,E,0.00,0.0,210625,,,A*57
$RC3,050553.500,,-0.031,0.079,-0.993,,,,0.0,,0.0,72.0,0.0,0.0,25.60,0,0.00,10.80*23
$GPRMC,050553.600,A,2450.5097,N,12112.0540,E,0.00,0.0,210625,,,A*54
$RC3,050553.600,,-0.031,0.079,-0.993,,,,0.0,,0.0,72.0,0.0,0.0,25.60,0,0.00,10.80*20
$GPRMC,050553.700,A,2450.5097,N,12112.0540,E,0.00,0.0,210625,,,A*55
$RC3,050553.700,,-0.031,0.079,-0.993,,,,0.0,,0.0,72.0,0.0,0.0,25.60,0,0.00,10.80*21
$GPRMC,050553.700,A,2450.5097,N,12112.0540,E,0.00,0.0,210625,,,A*55
$RC3,050553.700,,-0.031,0.079,-0.993,,,,0.0,,0.0,72.0,0.0,0.0,25.60,0,0.00,10.80*21
$GPRMC,050553.800,A,2450.5097,N,12112.0540,E,0.00,0.0,210625,,,A*5A
$RC3,050553.800,,-0.031,0.079,-0.993,,,,0.0,,0.0,72.0,0.0,0.0,25.60,0,0.00,10.80*2E
$GPRMC,050553.800,A,2450.5097,N,12112.0540,E,0.00,0.0,210625,,,A*5A
$RC3,050553.800,,-0.031,0.079,-0.993,,,,0.0,,0.0,72.0,0.0,0.0,25.60,0,0.00,10.80*2E
$GPRMC,050553.900,A,2450.5097,N,12112.0540,E,0.00,0.0,210625,,,A*5B
$RC3,050553.900,,-0.031,0.079,-0.993,,,,0.0,,0.0,72.0,0.0,0.0,25.60,0,0.00,10.80*2F
$GPRMC,050554.000,A,2450.5097,N,12112.0540,E,0.00,0.0,210625,,,A*55
$RC3,050554.000,,-0.031,0.079,-0.993,,,,0.0,,0.0,72.0,0.0,0.0,25.60,0,0.00,10.80*21
$GPRMC,050554.000,A,2450.5097,N,12112.0540,E,0.00,0.0,210625,,,A*55
$RC3,050554.000,,-0.031,0.079,-0.993,,,,0.0,,0.0,72.0,0.0,0.0,25.60,0,0.00,10.80*21
$GPRMC,050554.100,A,2450.5097,N,12112.0540,E,0.00,0.0,210625,,,A*54
$RC3,050554.100,,-0.031,0.079,-0.993,,,,0.0,,0.0,72.0,0.0,0.0,25.60,0,0.00,10.80*20
$GPRMC,050554.200,A,2450.5097,N,12112.0540,E,0.00,0.0,210625,,,A*57
$RC3,050554.200,,-0.031,0.079,-0.993,,,,0.0,,0.0,72.0,0.0,0.0,25.60,0,0.00,10.80*23
$GPRMC,050554.200,A,2450.5097,N,12112.0540,E,0.00,0.0,210625,,,A*57
$RC3,050554.200,,-0.031,0.079,-0.993,,,,0.0,,0.0,72.0,0.0,0.0,25.60,0,0.00,10.80*23
$GPRMC,050554.300,A,2450.5096,N,12112.0540,E,0.00,0.0,210625,,,A*57
$RC3,050554.300,,-0.031,0.079,-0.993,,,,0.0,,0.0,72.0,0.0,0.0,25.60,0,0.00,10.80*22
$GPRMC,050554.300,A,2450.5096,N,12112.0540,E,0.00,0.0,210625,,,A*57
$RC3,050554.300,,-0.031,0.079,-0.993,,,,0.0,,0.0,72.0,0.0,0.0,25.60,0,0.00,10.80*22
$GPRMC,050554.400,A,2450.5096,N,12112.0540,E,0.00,0.0,210625,,,A*50
$RC3,050554.400,,-0.031,0.079,-0.993,,,,0.0,,0.0,72.0,0.0,0.0,25.60,0,0.00,10.80*25
$GPRMC,050554.500,A,2450.5096,N,12112.0540,E,0.00,0.0,210625,,,A*51
$RC3,050554.500,,-0.031,0.079,-0.993,,,,0.0,,0.0,72.0,0.0,0.0,25.60,0,0.00,10.80*24
$GPRMC,050554.500,A,2450.5096,N,12112.0540,E,0.00,0.0,210625,,,A*51
$RC3,050554.500,,-0.031,0.079,-0.993,,,,0.0,,0.0,72.0,0.0,0.0,25.60,0,0.00,10.80*24
$GPRMC,050554.600,A,2450.5096,N,12112.0540,E,0.00,0.0,210625,,,A*52
$RC3,050554.600,,-0.030,0.079,-0.993,,,,0.0,,0.0,72.0,0.0,0.0,25.60,0,0.00,10.80*26
$GPRMC,050554.700,A,2450.5096,N,12112.0540,E,0.00,0.0,210625,,,A*53
$RC3,050554.700,,-0.031,0.079,-0.993,,,,0.0,,0.0,72.0,0.0,0.0,25.60,0,0.00,10.80*26
$GPRMC,050554.700,A,2450.5096,N,12112.0540,E,0.00,0.0,210625,,,A*53
$RC3,050554.700,,-0.030,0.079,-0.993,,,,0.0,,0.0,72.0,0.0,0.0,25.60,0,0.00,10.80*27
$GPRMC,050554.800,A,2450.5096,N,12112.0540,E,0.00,0.0,210625,,,A*5C
$RC3,050554.800,,-0.031,0.079,-0.993,,,,0.0,,0.0,72.0,0.0,0.0,25.60,0,0.00,10.80*29
$GPRMC,050554.800,A,2450.5096,N,12112.0540,E,0.00,0.0,210625,,,A*5C
$RC3,050554.800,,-0.031,0.079,-0.993,,,,0.0,,0.0,72.0,0.0,0.0,25.60,0,0.00,10.80*29
$GPRMC,050554.900,A,2450.5096,N,12112.0540,E,0.00,0.0,210625,,,A*5D
$RC3,050554.900,,-0.031,0.079,-0.993,,,,0.0,,0.0,72.0,0.0,0.0,25.60,0,0.00,10.80*28
$GPRMC,050555.000,A,2450.5096,N,12112.0540,E,0.00,0.0,210625,,,A*55
$RC3,050555.000,,-0.031,0.079,-0.993,,,,0.0,,0.0,72.0,0.0,0.0,25.60,0,0.00,10.80*20
$GPRMC,050555.000,A,2450.5096,N,12112.0540,E,0.00,0.0,210625,,,A*55
$RC3,050555.000,,-0.031,0.079,-0.993,,,,0.0,,0.0,72.0,0.0,0.0,25.60,0,0.00,10.80*20
$GPRMC,050555.100,A,2450.5096,N,12112.0540,E,0.00,0.0,210625,,,A*54
$RC3,050555.100,,-0.031,0.079,-0.993,,,,0.0,,0.0,72.0,0.0,0.0,25.60,0,0.00,10.80*21
$GPRMC,050555.200,A,2450.5096,N,12112.0540,E,0.00,0.0,210625,,,A*57
$RC3,050555.200,,-0.031,0.079,-0.993,,,,0.0,,0.0,72.0,0.0,0.0,25.60,0,0.00,10.80*22
$GPRMC,050555.200,A,2450.5096,N,12112.0540,E,0.00,0.0,210625,,,A*57
$RC3,050555.200,,-0.031,0.079,-0.993,,,,0.0,,0.0,72.0,0.0,0.0,25.60,0,0.00,10.70*2D
$GPRMC,050555.300,A,2450.5096,N,12112.0540,E,0.00,0.0,210625,,,A*56
$RC3,050555.300,,-0.031,0.079,-0.993,,,,0.0,,0.0,72.0,0.0,0.0,25.60,0,0.00,10.80*23
$GPRMC,050555.300,A,2450.5096,N,12112.0540,E,0.00,0.0,210625,,,A*56
$RC3,050555.300,,-0.031,0.079,-0.993,,,,0.0,,0.0,72.0,0.0,0.0,25.60,0,0.00,10.80*23
$GPRMC,050555.400,A,2450.5096,N,12112.0540,E,0.00,0.0,210625,,,A*51
$RC3,050555.400,,-0.030,0.079,-0.993,,,,0.0,,0.0,72.0,0.0,0.0,25.60,0,0.00,10.80*25
$GPRMC,050555.500,A,2450.5096,N,12112.0540,E,0.00,0.0,210625,,,A*50
$RC3,050555.500,,-0.031,0.079,-0.993,,,,0.0,,0.0,72.0,0.0,0.0,25.60,0,0.00,10.80*25
$GPRMC,050555.500,A,2450.5096,N,12112.0540,E,0.00,0.0,210625,,,A*50
$RC3,050555.500,,-0.031,0.079,-0.993,,,,0.0,,0.0,72.0,0.0,0.0,25.60,0,0.00,10.80*25
$GPRMC,050555.600,A,2450.5096,N,12112.0540,E,0.00,0.0,210625,,,A*53
$RC3,050555.600,,-0.031,0.079,-0.993,,,,0.0,,0.0,72.0,0.0,0.0,25.60,0,0.00,10.80*26
$GPRMC,050555.700,A,2450.5096,N,12112.0540,E,0.00,0.0,210625,,,A*52
$RC3,050555.700,,-0.031,0.079,-0.993,,,,0.0,,0.0,72.0,0.0,0.0,25.60,0,0.00,10.80*27
$GPRMC,050555.700,A,2450.5096,N,12112.0540,E,0.00,0.0,210625,,,A*52
$RC3,050555.700,,-0.031,0.079,-0.993,,,,0.0,,0.0,72.0,0.0,0.0,25.60,0,0.00,10.70*28
$GPRMC,050555.800,A,2450.5096,N,12112.0540,E,0.00,0.0,210625,,,A*5D
$RC3,050555.800,,-0.031,0.079,-0.993,,,,0.0,,0.0,72.0,0.0,0.0,25.60,0,0.00,10.80*28
$GPRMC,050555.900,A,2450.5096,N,12112.0540,E,0.00,0.0,210625,,,A*5C
$RC3,050555.900,,-0.030,0.079,-0.993,,,,0.0,,0.0,72.0,0.0,0.0,25.60,0,0.00,10.80*28
$GPRMC,050555.900,A,2450.5096,N,12112.0540,E,0.00,0.0,210625,,,A*5C
$RC3,050555.900,,-0.031,0.079,-0.993,,,,0.0,,0.0,72.0,0.0,0.0,25.60,0,0.00,10.70*26
$GPRMC,050556.000,A,2450.5096,N,12112.0540,E,0.00,0.0,210625,,,A*56
$RC3,050556.000,,-0.031,0.079,-0.993,,,,0.0,,0.0,72.0,0.0,0.0,25.60,0,0.00,10.80*23
$GPRMC,050556.000,A,2450.5096,N,12112.0540,E,0.00,0.0,210625,,,A*56
$RC3,050556.000,,-0.031,0.079,-0.993,,,,0.0,,0.0,72.0,0.0,0.0,25.60,0,0.00,10.80*23
$GPRMC,050556.100,A,2450.5096,N,12112.0540,E,0.00,0.0,210625,,,A*57
$RC3,050556.100,,-0.031,0.079,-0.993,,,,0.0,,0.0,72.0,0.0,0.0,25.60,0,0.00,10.80*22
$GPRMC,050556.200,A,2450.5096,N,12112.0540,E,0.00,0.0,210625,,,A*54
$RC3,050556.200,,-0.031,0.079,-0.993,,,,0.0,,0.0,72.0,0.0,0.0,25.60,0,0.00,10.80*21
$GPRMC,050556.200,A,2450.5096,N,12112.0540,E,0.00,0.0,210625,,,A*54
$RC3,050556.200,,-0.031,0.079,-0.993,,,,0.0,,0.0,72.0,0.0,0.0,25.60,0,0.00,10.80*21
$GPRMC,050556.300,A,2450.5096,N,12112.0540,E,0.00,0.0,210625,,,A*55
$RC3,050556.300,,-0.030,0.079,-0.993,,,,0.0,,0.0,72.0,0.0,0.0,25.60,0,0.00,10.80*21
$GPRMC,050556.400,A,2450.5096,N,12112.0540,E,0.54,0.0,210625,,,A*53
$RC3,050556.400,,-0.032,0.079,-0.993,,,,0.0,,0.0,72.0,0.0,1.0,25.60,0,0.00,10.80*25
$GPRMC,050556.400,A,2450.5096,N,12112.0540,E,0.54,0.0,210625,,,A*53
$RC3,050556.400,,-0.032,0.080,-0.993,,,,0.0,,0.0,72.0,0.0,1.0,25.60,0,0.00,10.80*23
$GPRMC,050556.500,A,2450.5096,N,12112.0540,E,0.00,0.0,210625,,,A*53
$RC3,050556.500,,-0.031,0.079,-0.993,,,,0.0,,0.0,72.0,0.0,0.0,25.60,0,0.00,10.80*26
$GPRMC,050556.500,A,2450.5096,N,12112.0540,E,0.00,0.0,210625,,,A*53
$RC3,050556.500,,-0.031,0.079,-0.993,,,,0.0,,0.0,72.0,0.0,0.0,25.60,0,0.00,10.70*29
$GPRMC,050556.600,A,2450.5096,N,12112.0540,E,0.00,0.0,210625,,,A*50
$RC3,050556.600,,-0.031,0.079,-0.993,,,,0.0,,0.0,72.0,0.0,0.0,25.60,0,0.00,10.80*25
$GPRMC,050556.700,A,2450.5096,N,12112.0540,E,0.00,0.0,210625,,,A*51
$RC3,050556.700,,-0.031,0.080,-0.993,,,,0.0,,0.0,72.0,0.0,0.0,25.60,0,0.00,10.80*22
$GPRMC,050556.700,A,2450.5096,N,12112.0540,E,0.00,0.0,210625,,,A*51
$RC3,050556.700,,-0.030,0.079,-0.993,,,,0.0,,0.0,72.0,0.0,0.0,25.60,0,0.00,10.80*25
$GPRMC,050556.800,A,2450.5096,N,12112.0540,E,0.00,0.0,210625,,,A*5E
$RC3,050556.800,,-0.030,0.079,-0.993,,,,0.0,,0.0,72.0,0.0,0.0,25.60,0,0.00,10.80*2A
$GPRMC,050556.900,A,2450.5096,N,12112.0540,E,0.00,0.0,210625,,,A*5F
$RC3,050556.900,,-0.031,0.079,-0.993,,,,0.0,,0.0,72.0,0.0,0.0,25.60,0,0.00,10.80*2A
$GPRMC,050556.900,A,2450.5096,N,12112.0540,E,0.00,0.0,210625,,,A*5F
$RC3,050556.900,,-0.031,0.079,-0.993,,,,0.0,,0.0,72.0,0.0,0.0,25.60,0,0.00,10.80*2A
$GPRMC,050557.000,A,2450.5096,N,12112.0540,E,0.00,0.0,210625,,,A*57
$RC3,050557.000,,-0.031,0.079,-0.993,,,,0.0,,0.0,72.0,0.0,0.0,25.60,0,0.00,10.80*22
$GPRMC,050557.000,A,2450.5096,N,12112.0540,E,0.00,0.0,210625,,,A*57
$RC3,050557.000,,-0.031,0.079,-0.993,,,,0.0,,0.0,72.0,0.0,0.0,25.60,0,0.00,10.80*22
$GPRMC,050557.100,A,2450.5096,N,12112.0540,E,0.00,0.0,210625,,,A*56
$RC3,050557.100,,-0.031,0.079,-0.993,,,,0.0,,0.0,72.0,0.0,0.0,25.60,0,0.00,10.80*23
$GPRMC,050557.200,A,2450.5096,N,12112.0540,E,0.00,0.0,210625,,,A*55
$RC3,050557.200,,-0.031,0.079,-0.993,,,,0.0,,0.0,72.0,0.0,0.0,25.60,0,0.00,10.80*20
$GPRMC,050557.200,A,2450.5096,N,12112.0540,E,0.00,0.0,210625,,,A*55
$RC3,050557.200,,-0.031,0.079,-0.993,,,,0.0,,0.0,72.0,0.0,0.0,25.60,0,0.00,10.80*20
$GPRMC,050557.300,A,2450.5096,N,12112.0540,E,0.00,0.0,210625,,,A*54
$RC3,050557.300,,-0.031,0.079,-0.993,,,,0.0,,0.0,72.0,0.0,0.0,25.60,0,0.00,10.80*21
$GPRMC,050557.300,A,2450.5096,N,12112.0540,E,0.00,0.0,210625,,,A*54
$RC3,050557.300,,-0.031,0.079,-0.993,,,,0.0,,0.0,72.0,0.0,0.0,25.60,0,0.00,10.80*21
$GPRMC,050557.400,A,2450.5096,N,12112.0540,E,0.00,0.0,210625,,,A*53
$RC3,050557.400,,-0.031,0.079,-0.993,,,,0.0,,0.0,72.0,0.0,0.0,25.60,0,0.00,10.80*26
$GPRMC,050557.500,A,2450.5096,N,12112.0540,E,0.00,0.0,210625,,,A*52
$RC3,050557.500,,-0.030,0.079,-0.993,,,,0.0,,0.0,72.0,0.0,0.0,25.60,0,0.00,10.80*26
$GPRMC,050557.500,A,2450.5096,N,12112.0540,E,0.00,0.0,210625,,,A*52
$RC3,050557.500,,-0.031,0.079,-0.993,,,,0.0,,0.0,72.0,0.0,0.0,25.60,0,0.00,10.80*27
$GPRMC,050557.600,A,2450.5096,N,12112.0540,E,0.00,0.0,210625,,,A*51
$RC3,050557.600,,-0.031,0.079,-0.993,,,,0.0,,0.0,72.0,0.0,0.0,25.60,0,0.00,10.80*24
$GPRMC,050557.700,A,2450.5096,N,12112.0540,E,0.00,0.0,210625,,,A*50
$RC3,050557.700,,-0.031,0.079,-0.993,,,,0.0,,0.0,72.0,0.0,0.0,25.60,0,0.00,10.80*25
$GPRMC,050557.700,A,2450.5096,N,12112.0540,E,0.00,0.0,210625,,,A*50
$RC3,050557.700,,-0.031,0.079,-0.993,,,,0.0,,0.0,72.0,0.0,0.0,25.60,0,0.00,10.80*25
$GPRMC,050557.800,A,2450.5096,N,12112.0540,E,0.00,0.0,210625,,,A*5F
$RC3,050557.800,,-0.031,0.079,-0.993,,,,0.0,,0.0,72.0,0.0,0.0,25.60,0,0.00,10.80*2A
$GPRMC,050557.900,A,2450.5096,N,12112.0540,E,0.00,0.0,210625,,,A*5E
$RC3,050557.900,,-0.031,0.079,-0.993,,,,0.0,,0.0,72.0,0.0,0.0,25.60,0,0.00,10.70*24
$GPRMC,050557.900,A,2450.5096,N,12112.0540,E,0.00,0.0,210625,,,A*5E
$RC3,050557.900,,-0.031,0.079,-0.993,,,,0.0,,0.0,72.0,0.0,0.0,25.60,0,0.00,10.70*24
$GPRMC,050558.000,A,2450.5096,N,12112.0540,E,0.00,0.0,210625,,,A*58
$RC3,050558.000,,-0.030,0.079,-0.993,,,,0.0,,0.0,72.0,0.0,0.0,25.60,0,0.00,10.80*2C
$GPRMC,050558.000,A,2450.5096,N,12112.0540,E,0.00,0.0,210625,,,A*58
$RC3,050558.000,,-0.031,0.079,-0.993,,,,0.0,,0.0,72.0,0.0,0.0,25.60,0,0.00,10.80*2D
$GPRMC,050558.100,A,2450.5096,N,12112.0541,E,0.00,0.0,210625,,,A*58
$RC3,050558.100,,-0.031,0.079,-0.993,,,,0.0,,0.0,72.0,0.0,0.0,25.60,0,0.00,10.80*2C
$GPRMC,050558.200,A,2450.5096,N,12112.0541,E,0.00,0.0,210625,,,A*5B
$RC3,050558.200,,-0.030,0.079,-0.993,,,,0.0,,0.0,72.0,0.0,0.0,25.60,0,0.00,10.70*21
$GPRMC,050558.200,A,2450.5096,N,12112.0541,E,0.00,0.0,210625,,,A*5B
$RC3,050558.200,,-0.031,0.080,-0.993,,,,0.0,,0.0,72.0,0.0,0.0,25.60,0,0.00,10.70*26
$GPRMC,050558.300,A,2450.5096,N,12112.0540,E,0.00,0.0,210625,,,A*5B
$RC3,050558.300,,-0.031,0.080,-0.993,,,,0.0,,0.0,72.0,0.0,0.0,25.60,0,0.00,10.80*28
$GPRMC,050558.400,A,2450.5096,N,12112.0540,E,0.00,0.0,210625,,,A*5C
$RC3,050558.400,,-0.031,0.080,-0.993,,,,0.0,,0.0,72.0,0.0,0.0,25.60,0,0.00,10.80*2F
$GPRMC,050558.400,A,2450.5096,N,12112.0541,E,0.00,0.0,210625,,,A*5D
$RC3,050558.400,,-0.030,0.079,-0.993,,,,0.0,,0.0,72.0,0.0,0.0,25.60,0,0.00,10.80*28
$GPRMC,050558.500,A,2450.5096,N,12112.0540,E,0.00,0.0,210625,,,A*5D
$RC3,050558.500,,-0.031,0.079,-0.993,,,,0.0,,0.0,72.0,0.0,0.0,25.60,0,0.00,10.80*28
$GPRMC,050558.500,A,2450.5096,N,12112.0540,E,0.00,0.0,210625,,,A*5D
$RC3,050558.500,,-0.031,0.079,-0.993,,,,0.0,,0.0,72.0,0.0,0.0,25.60,0,0.00,10.70*27
$GPRMC,050558.600,A,2450.5096,N,12112.0540,E,0.00,0.0,210625,,,A*5E
$RC3,050558.600,,-0.031,0.079,-0.993,,,,0.0,,0.0,72.0,0.0,0.0,25.60,0,0.00,10.80*2B
$GPRMC,050558.700,A,2450.5096,N,12112.0540,E,0.00,0.0,210625,,,A*5F
$RC3,050558.700,,-0.031,0.079,-0.993,,,,0.0,,0.0,72.0,0.0,0.0,25.60,0,0.00,10.80*2A
$GPRMC,050558.700,A,2450.5096,N,12112.0540,E,0.00,0.0,210625,,,A*5F
$RC3,050558.700,,-0.031,0.079,-0.993,,,,0.0,,0.0,72.0,0.0,0.0,25.60,0,0.00,10.70*25
$GPRMC,050558.800,A,2450.5096,N,12112.0540,E,0.00,0.0,210625,,,A*50
$RC3,050558.800,,-0.031,0.079,-0.993,,,,0.0,,0.0,72.0,0.0,0.0,25.60,0,0.00,10.80*25
$GPRMC,050558.900,A,2450.5096,N,12112.0540,E,0.00,0.0,210625,,,A*51
$RC3,050558.900,,-0.031,0.079,-0.993,,,,0.0,,0.0,72.0,0.0,0.0,25.60,0,0.00,10.80*24
$GPRMC,050558.900,A,2450.5096,N,12112.0540,E,0.00,0.0,210625,,,A*51
$RC3,050558.900,,-0.030,0.079,-0.993,,,,0.0,,0.0,72.0,0.0,0.0,25.60,0,0.00,10.80*25
$GPRMC,050559.000,A,2450.5096,N,12112.0540,E,0.00,0.0,210625,,,A*59
$RC3,050559.000,,-0.030,0.079,-0.993,,,,0.0,,0.0,72.0,0.0,0.0,25.60,0,0.00,10.80*2D
$GPRMC,050559.000,A,2450.5096,N,12112.0540,E,0.00,0.0,210625,,,A*59
$RC3,050559.000,,-0.031,0.079,-0.993,,,,0.0,,0.0,72.0,0.0,0.0,25.60,0,0.00,10.80*2C
$GPRMC,050559.100,A,2450.5096,N,12112.0540,E,0.00,0.0,210625,,,A*58
$RC3,050559.100,,-0.031,0.079,-0.993,,,,0.0,,0.0,72.0,0.0,0.0,25.60,0,0.00,10.80*2D
$GPRMC,050559.200,A,2450.5096,N,12112.0540,E,0.00,0.0,210625,,,A*5B
$RC3,050559.200,,-0.030,0.079,-0.993,,,,0.0,,0.0,72.0,0.0,0.0,25.60,0,0.00,10.70*20
$GPRMC,050559.200,A,2450.5096,N,12112.0540,E,0.00,0.0,210625,,,A*5B
$RC3,050559.200,,-0.031,0.079,-0.993,,,,0.0,,0.0,72.0,0.0,0.0,25.60,0,0.00,10.70*21
$GPRMC,050559.300,A,2450.5096,N,12112.0540,E,0.00,0.0,210625,,,A*5A
$RC3,050559.300,,-0.031,0.079,-0.993,,,,0.0,,0.0,72.0,0.0,0.0,25.60,0,0.00,10.80*2F
$GPRMC,050559.400,A,2450.5096,N,12112.0540,E,0.00,0.0,210625,,,A*5D
$RC3,050559.400,,-0.031,0.079,-0.993,,,,0.0,,0.0,72.0,0.0,0.0,25.60,0,0.00,10.80*28
$GPRMC,050559.400,A,2450.5096,N,12112.0540,E,0.00,0.0,210625,,,A*5D
$RC3,050559.400,,-0.031,0.079,-0.993,,,,0.0,,0.0,72.0,0.0,0.0,25.60,0,0.00,10.80*28
$GPRMC,050559.500,A,2450.5096,N,12112.0540,E,0.00,0.0,210625,,,A*5C
$RC3,050559.500,,-0.031,0.079,-0.993,,,,0.0,,0.0,72.0,0.0,0.0,25.60,0,0.00,10.80*29
$GPRMC,050559.500,A,2450.5096,N,12112.0540,E,0.00,0.0,210625,,,A*5C
$RC3,050559.500,,-0.031,0.079,-0.993,,,,0.0,,0.0,72.0,0.0,0.0,25.60,0,0.00,10.80*29
$GPRMC,050559.600,A,2450.5096,N,12112.0540,E,0.00,0.0,210625,,,A*5F
$RC3,050559.600,,-0.031,0.079,-0.993,,,,0.0,,0.0,72.0,0.0,0.0,25.60,0,0.00,10.70*25
$GPRMC,050559.700,A,2450.5096,N,12112.0540,E,0.00,0.0,210625,,,A*5E
$RC3,050559.700,,-0.031,0.079,-0.993,,,,0.0,,0.0,72.0,0.0,0.0,25.60,0,0.00,10.70*24
$GPRMC,050559.700,A,2450.5096,N,12112.0540,E,0.00,0.0,210625,,,A*5E
$RC3,050559.700,,-0.031,0.079,-0.993,,,,0.0,,0.0,72.0,0.0,0.0,25.60,0,0.00,10.70*24
$GPRMC,050559.800,A,2450.5096,N,12112.0540,E,0.00,0.0,210625,,,A*51
$RC3,050559.800,,-0.031,0.079,-0.993,,,,0.0,,0.0,72.0,0.0,0.0,25.60,0,0.00,10.80*24
$GPRMC,050559.900,A,2450.5096,N,12112.0540,E,0.00,0.0,210625,,,A*50
$RC3,050559.900,,-0.031,0.079,-0.993,,,,0.0,,0.0,72.0,0.0,0.0,25.60,0,0.00,10.80*25
$GPRMC,050559.900,A,2450.5096,N,12112.0540,E,0.00,0.0,210625,,,A*50
$RC3,050559.900,,-0.031,0.079,-0.993,,,,0.0,,0.0,72.0,0.0,0.0,25.60,0,0.00,10.80*25
$GPRMC,050600.000,A,2450.5096,N,12112.0540,E,0.00,0.0,210625,,,A*56
$RC3,050600.000,,-0.031,0.079,-0.993,,,,0.0,,0.0,72.0,0.0,0.0,25.60,0,0.00,10.80*23
$GPRMC,050600.000,A,2450.5096,N,12112.0540,E,0.00,0.0,210625,,,A*56
$RC3,050600.000,,-0.031,0.079,-0.993,,,,0.0,,0.0,72.0,0.0,0.0,25.60,0,0.00,10.80*23
$GPRMC,050600.100,A,2450.5096,N,12112.0540,E,0.00,0.0,210625,,,A*57
$RC3,050600.100,,-0.031,0.079,-0.993,,,,0.0,,0.0,72.0,0.0,0.0,25.60,0,0.00,10.80*22
$GPRMC,050600.200,A,2450.5096,N,12112.0540,E,0.00,0.0,210625,,,A*54
$RC3,050600.200,,-0.030,0.079,-0.993,,,,0.0,,0.0,72.0,0.0,0.0,25.60,0,0.00,10.70*2F
$GPRMC,050600.200,A,2450.5096,N,12112.0540,E,0.00,0.0,210625,,,A*54
$RC3,050600.200,,-0.030,0.079,-0.993,,,,0.0,,0.0,72.0,0.0,0.0,25.60,0,0.00,10.70*2F
$GPRMC,050600.300,A,2450.5096,N,12112.0540,E,0.00,0.0,210625,,,A*55
$RC3,050600.300,,-0.030,0.079,-0.993,,,,0.0,,0.0,72.0,0.0,0.0,25.60,0,0.00,10.80*21
$GPRMC,050600.400,A,2450.5096,N,12112.0540,E,0.00,0.0,210625,,,A*52
$RC3,050600.400,,-0.031,0.079,-0.993,,,,0.0,,0.0,72.0,0.0,0.0,25.60,0,0.00,10.80*27
$GPRMC,050600.400,A,2450.5096,N,12112.0540,E,0.00,0.0,210625,,,A*52
$RC3,050600.400,,-0.031,0.079,-0.993,,,,0.0,,0.0,72.0,0.0,0.0,25.60,0,0.00,10.80*27
$GPRMC,050600.500,A,2450.5096,N,12112.0540,E,0.00,0.0,210625,,,A*53
$RC3,050600.500,,-0.031,0.079,-0.993,,,,0.0,,0.0,72.0,0.0,0.0,25.60,0,0.00,10.70*29
$GPRMC,050600.500,A,2450.5096,N,12112.0540,E,0.00,0.0,210625,,,A*53
$RC3,050600.500,,-0.030,0.079,-0.993,,,,0.0,,0.0,72.0,0.0,0.0,25.60,0,0.00,10.70*28
$GPRMC,050600.600,A,2450.5096,N,12112.0540,E,0.00,0.0,210625,,,A*50
$RC3,050600.600,,-0.030,0.079,-0.993,,,,0.0,,0.0,72.0,0.0,0.0,25.60,0,0.00,10.80*24
$GPRMC,050600.700,A,2450.5096,N,12112.0540,E,0.00,0.0,210625,,,A*51
$RC3,050600.700,,-0.030,0.079,-0.993,,,,0.0,,0.0,72.0,0.0,0.0,25.60,0,0.00,10.70*2A
$GPRMC,050600.700,A,2450.5096,N,12112.0540,E,0.00,0.0,210625,,,A*51
$RC3,050600.700,,-0.030,0.079,-0.993,,,,0.0,,0.0,72.0,0.0,0.0,25.60,0,0.00,10.70*2A
$GPRMC,050600.800,A,2450.5096,N,12112.0540,E,0.00,0.0,210625,,,A*5E
$RC3,050600.800,,-0.030,0.079,-0.993,,,,0.0,,0.0,72.0,0.0,0.0,25.60,0,0.00,10.70*25
$GPRMC,050600.900,A,2450.5096,N,12112.0540,E,0.00,0.0,210625,,,A*5F
$RC3,050600.900,,-0.031,0.079,-0.993,,,,0.0,,0.0,72.0,0.0,0.0,25.60,0,0.00,10.80*2A
$GPRMC,050600.900,A,2450.5096,N,12112.0540,E,0.00,0.0,210625,,,A*5F
$RC3,050600.900,,-0.031,0.079,-0.993,,,,0.0,,0.0,72.0,0.0,0.0,25.60,0,0.00,10.80*2A
$GPRMC,050601.000,A,2450.5096,N,12112.0540,E,0.00,0.0,210625,,,A*57
$RC3,050601.000,,-0.031,0.079,-0.993,,,,0.0,,0.0,72.0,0.0,0.0,25.60,0,0.00,10.70*2D
$GPRMC,050601.000,A,2450.5096,N,12112.0540,E,0.00,0.0,210625,,,A*57
$RC3,050601.000,,-0.031,0.079,-0.993,,,,0.0,,0.0,72.0,0.0,0.0,25.60,0,0.00,10.70*2D
$GPRMC,050601.100,A,2450.5096,N,12112.0540,E,0.00,0.0,210625,,,A*56
$RC3,050601.100,,-0.031,0.079,-0.993,,,,0.0,,0.0,72.0,0.0,0.0,25.60,0,0.00,10.70*2C
$GPRMC,050601.200,A,2450.5096,N,12112.0540,E,0.00,0.0,210625,,,A*55
$RC3,050601.200,,-0.031,0.079,-0.993,,,,0.0,,0.0,72.0,0.0,0.0,25.60,0,0.00,10.80*20
$GPRMC,050601.200,A,2450.5096,N,12112.0540,E,0.00,0.0,210625,,,A*55
$RC3,050601.200,,-0.030,0.079,-0.993,,,,0.0,,0.0,72.0,0.0,0.0,25.60,0,0.00,10.70*2E
$GPRMC,050601.300,A,2450.5096,N,12112.0540,E,0.00,0.0,210625,,,A*54
$RC3,050601.300,,-0.030,0.079,-0.993,,,,0.0,,0.0,72.0,0.0,0.0,25.60,0,0.00,10.70*2F
$GPRMC,050601.400,A,2450.5096,N,12112.0540,E,0.00,0.0,210625,,,A*53
$RC3,050601.400,,-0.030,0.079,-0.993,,,,0.0,,0.0,72.0,0.0,0.0,25.60,0,0.00,10.70*28
$GPRMC,050601.400,A,2450.5096,N,12112.0540,E,0.00,0.0,210625,,,A*53
$RC3,050601.400,,-0.030,0.079,-0.993,,,,0.0,,0.0,72.0,0.0,0.0,25.60,0,0.00,10.80*27
$GPRMC,050601.500,A,2450.5096,N,12112.0540,E,0.00,0.0,210625,,,A*52
$RC3,050601.500,,-0.030,0.079,-0.993,,,,0.0,,0.0,72.0,0.0,0.0,25.60,0,0.00,10.80*26
$GPRMC,050601.500,A,2450.5096,N,12112.0540,E,0.00,0.0,210625,,,A*52
$RC3,050601.500,,-0.030,0.079,-0.993,,,,0.0,,0.0,72.0,0.0,0.0,25.60,0,0.00,10.70*29
$GPRMC,050601.600,A,2450.5096,N,12112.0540,E,0.00,0.0,210625,,,A*51
$RC3,050601.600,,-0.031,0.079,-0.993,,,,0.0,,0.0,72.0,0.0,0.0,25.60,0,0.00,10.80*24
$GPRMC,050601.700,A,2450.5096,N,12112.0540,E,0.00,0.0,210625,,,A*50
$RC3,050601.700,,-0.031,0.079,-0.993,,,,0.0,,0.0,72.0,0.0,0.0,25.60,0,0.00,10.70*2A
$GPRMC,050601.700,A,2450.5096,N,12112.0540,E,0.00,0.0,210625,,,A*50
$RC3,050601.700,,-0.031,0.079,-0.993,,,,0.0,,0.0,72.0,0.0,0.0,25.60,0,0.00,10.70*2A
$GPRMC,050601.800,A,2450.5096,N,12112.0540,E,0.00,0.0,210625,,,A*5F
$RC3,050601.800,,-0.031,0.079,-0.993,,,,0.0,,0.0,72.0,0.0,0.0,25.60,0,0.00,10.80*2A
$GPRMC,050601.900,A,2450.5096,N,12112.0540,E,0.00,0.0,210625,,,A*5E
$RC3,050601.900,,-0.031,0.079,-0.993,,,,0.0,,0.0,72.0,0.0,0.0,25.60,0,0.00,10.80*2B
$GPRMC,050601.900,A,2450.5096,N,12112.0540,E,0.00,0.0,210625,,,A*5E
$RC3,050601.900,,-0.031,0.079,-0.993,,,,0.0,,0.0,72.0,0.0,0.0,25.60,0,0.00,10.80*2B
$GPRMC,050602.000,A,2450.5096,N,12112.0540,E,0.00,0.0,210625,,,A*54
$RC3,050602.000,,-0.030,0.079,-0.993,,,,0.0,,0.0,72.0,0.0,0.0,25.60,0,0.00,10.80*20
$GPRMC,050602.000,A,2450.5096,N,12112.0540,E,0.00,0.0,210625,,,A*54
$RC3,050602.000,,-0.031,0.079,-0.993,,,,0.0,,0.0,72.0,0.0,0.0,25.60,0,0.00,10.80*21
$GPRMC,050602.100,A,2450.5096,N,12112.0540,E,0.00,0.0,210625,,,A*55
$RC3,050602.100,,-0.031,0.079,-0.993,,,,0.0,,0.0,72.0,0.0,0.0,25.60,0,0.00,10.80*20
$GPRMC,050602.200,A,2450.5096,N,12112.0540,E,0.00,0.0,210625,,,A*56
$RC3,050602.200,,-0.031,0.079,-0.993,,,,0.0,,0.0,72.0,0.0,0.0,25.60,0,0.00,10.70*2C
$GPRMC,050602.200,A,2450.5096,N,12112.0540,E,0.00,0.0,210625,,,A*56
$RC3,050602.200,,-0.031,0.079,-0.993,,,,0.0,,0.0,72.0,0.0,0.0,25.60,0,0.00,10.70*2C
$GPRMC,050602.300,A,2450.5096,N,12112.0540,E,0.00,0.0,210625,,,A*57
$RC3,050602.300,,-0.031,0.079,-0.993,,,,0.0,,0.0,72.0,0.0,0.0,25.60,0,0.00,10.80*22
$GPRMC,050602.400,A,2450.5096,N,12112.0540,E,0.00,0.0,210625,,,A*50
$RC3,050602.400,,-0.031,0.079,-0.993,,,,0.0,,0.0,72.0,0.0,0.0,25.60,0,0.00,10.70*2A
$GPRMC,050602.400,A,2450.5096,N,12112.0540,E,0.00,0.0,210625,,,A*50
$RC3,050602.400,,-0.031,0.079,-0.993,,,,0.0,,0.0,72.0,0.0,0.0,25.60,0,0.00,10.80*25
$GPRMC,050602.500,A,2450.5096,N,12112.0540,E,0.00,0.0,210625,,,A*51
$RC3,050602.500,,-0.031,0.079,-0.993,,,,0.0,,0.0,72.0,0.0,0.0,25.60,0,0.00,10.80*24
$GPRMC,050602.500,A,2450.5096,N,12112.0540,E,0.00,0.0,210625,,,A*51
$RC3,050602.500,,-0.031,0.079,-0.993,,,,0.0,,0.0,72.0,0.0,0.0,25.60,0,0.00,10.70*2B
$GPRMC,050602.600,A,2450.5096,N,12112.0540,E,0.00,0.0,210625,,,A*52
$RC3,050602.600,,-0.030,0.079,-0.993,,,,0.0,,0.0,72.0,0.0,0.0,25.60,0,0.00,10.80*26
$GPRMC,050602.700,A,2450.5096,N,12112.0540,E,0.00,0.0,210625,,,A*53
$RC3,050602.700,,-0.031,0.079,-0.993,,,,0.0,,0.0,72.0,0.0,0.0,25.60,0,0.00,10.70*29
$GPRMC,050602.700,A,2450.5096,N,12112.0540,E,0.00,0.0,210625,,,A*53
$RC3,050602.700,,-0.031,0.079,-0.993,,,,0.0,,0.0,72.0,0.0,0.0,25.60,0,0.00,10.70*29
$GPRMC,050602.800,A,2450.5096,N,12112.0540,E,0.00,0.0,210625,,,A*5C
$RC3,050602.800,,-0.031,0.079,-0.993,,,,0.0,,0.0,72.0,0.0,0.0,25.60,0,0.00,10.80*29
$GPRMC,050602.900,A,2450.5096,N,12112.0540,E,0.00,0.0,210625,,,A*5D
$RC3,050602.900,,-0.031,0.079,-0.993,,,,0.0,,0.0,72.0,0.0,0.0,25.60,0,0.00,10.70*27
$GPRMC,050602.900,A,2450.5096,N,12112.0540,E,0.00,0.0,210625,,,A*5D
$RC3,050602.900,,-0.030,0.079,-0.993,,,,0.0,,0.0,72.0,0.0,0.0,25.60,0,0.00,10.70*26
$GPRMC,050603.000,A,2450.5096,N,12112.0540,E,0.00,0.0,210625,,,A*55
$RC3,050603.000,,-0.031,0.079,-0.993,,,,0.0,,0.0,72.0,0.0,0.0,25.60,0,0.00,10.80*20
$GPRMC,050603.000,A,2450.5096,N,12112.0540,E,0.00,0.0,210625,,,A*55
$RC3,050603.000,,-0.030,0.079,-0.993,,,,0.0,,0.0,72.0,0.0,0.0,25.60,0,0.00,10.70*2E
$GPRMC,050603.100,A,2450.5096,N,12112.0540,E,0.00,0.0,210625,,,A*54
$RC3,050603.100,,-0.030,0.079,-0.993,,,,0.0,,0.0,72.0,0.0,0.0,25.60,0,0.00,10.80*20
$GPRMC,050603.200,A,2450.5096,N,12112.0540,E,0.00,0.0,210625,,,A*57
$RC3,050603.200,,-0.030,0.079,-0.993,,,,0.0,,0.0,72.0,0.0,0.0,25.60,0,0.00,10.70*2C
$GPRMC,050603.200,A,2450.5096,N,12112.0540,E,0.00,0.0,210625,,,A*57
$RC3,050603.200,,-0.031,0.079,-0.993,,,,0.0,,0.0,72.0,0.0,0.0,25.60,0,0.00,10.70*2D
$GPRMC,050603.300,A,2450.5096,N,12112.0540,E,0.00,0.0,210625,,,A*56
$RC3,050603.300,,-0.031,0.079,-0.993,,,,0.0,,0.0,72.0,0.0,0.0,25.60,0,0.00,10.80*23
$GPRMC,050603.400,A,2450.5096,N,12112.0540,E,0.00,0.0,210625,,,A*51
$RC3,050603.400,,-0.030,0.079,-0.993,,,,0.0,,0.0,72.0,0.0,0.0,25.60,0,0.00,10.80*25
$GPRMC,050603.400,A,2450.5096,N,12112.0540,E,0.00,0.0,210625,,,A*51
$RC3,050603.400,,-0.030,0.079,-0.993,,,,0.0,,0.0,72.0,0.0,0.0,25.60,0,0.00,10.80*25
$GPRMC,050603.500,A,2450.5096,N,12112.0540,E,0.00,0.0,210625,,,A*50
$RC3,050603.500,,-0.031,0.079,-0.993,,,,0.0,,0.0,72.0,0.0,0.0,25.60,0,0.00,10.70*2A
$GPRMC,050603.500,A,2450.5096,N,12112.0540,E,0.00,0.0,210625,,,A*50
$RC3,050603.500,,-0.031,0.079,-0.993,,,,0.0,,0.0,72.0,0.0,0.0,25.60,0,0.00,10.70*2A
$GPRMC,050603.600,A,2450.5096,N,12112.0540,E,0.00,0.0,210625,,,A*53
$RC3,050603.600,,-0.031,0.079,-0.993,,,,0.0,,0.0,72.0,0.0,0.0,25.60,0,0.00,10.80*26
$GPRMC,050603.700,A,2450.5096,N,12112.0540,E,0.00,0.0,210625,,,A*52
$RC3,050603.700,,-0.031,0.079,-0.993,,,,0.0,,0.0,72.0,0.0,0.0,25.60,0,0.00,10.70*28
