$GPRMC,095409.300,A,2450.5554,N,12112.0367,E,30.78,24.1,190921,,,A*54
$RC3,095409.300,,-0.176,0.115,-0.045,,,,11321.0,,62.7,106.0,69.5,57.0,12.50,0,0.00,13.70*2B
$GPRMC,095409.300,A,2450.5554,N,12112.0367,E,30.78,23.5,190921,,,A*57
$RC3,095409.300,,-0.093,0.096,-0.073,,,,11276.0,,54.9,106.0,70.2,57.0,12.50,0,0.00,13.70*29
$GPRMC,095409.400,A,2450.5561,N,12112.0371,E,30.78,22.8,190921,,,A*5D
$RC3,095409.400,,-0.098,0.100,-0.055,,,,11203.0,,45.1,106.0,70.3,57.0,12.50,0,0.00,13.70*24
$GPRMC,095409.500,A,2450.5569,N,12112.0375,E,31.32,21.6,190921,,,A*52
$RC3,095409.500,,-0.066,0.181,0.088,,,,11075.0,,37.3,106.0,71.0,58.0,12.50,0,0.00,13.70*09
$GPRMC,095409.500,A,2450.5569,N,12112.0375,E,31.32,20.4,190921,,,A*51
$RC3,095409.500,,-0.078,0.224,0.231,,,,10921.0,,34.1,106.0,71.4,58.0,12.50,0,0.00,13.70*06
$GPRMC,095409.600,A,2450.5577,N,12112.0379,E,31.32,19.2,190921,,,A*5D
$RC3,095409.600,,-0.019,0.263,0.309,,,,10819.0,,36.5,106.0,72.3,58.0,12.50,0,0.00,13.70*03
$GPRMC,095409.600,A,2450.5577,N,12112.0379,E,31.32,17.4,190921,,,A*55
$RC3,095409.600,,-0.004,0.253,0.405,,,,10785.0,,42.7,106.0,73.2,58.0,12.50,0,0.00,13.70*0C
$GPRMC,095409.700,A,2450.5586,N,12112.0382,E,31.86,15.3,190921,,,A*54
$RC3,095409.700,,-0.016,0.257,0.502,,,,10799.0,,53.7,106.0,73.8,59.0,12.50,0,0.00,13.70*0A
$GPRMC,095409.800,A,2450.5594,N,12112.0385,E,31.86,13.7,190921,,,A*5D
$RC3,095409.800,,0.030,0.235,0.477,,,,10894.0,,62.4,106.0,74.0,59.0,12.50,0,0.00,13.70*27
$GPRMC,095409.800,A,2450.5594,N,12112.0385,E,31.86,11.5,190921,,,A*5D
$RC3,095409.800,,0.042,0.266,0.542,,,,11025.0,,75.7,106.0,74.0,59.0,12.50,0,0.00,13.70*25
$GPRMC,095409.900,A,2450.5603,N,12112.0387,E,31.86,9.7,190921,,,A*68
$RC3,095409.900,,0.038,0.273,0.473,,,,11124.0,,77.3,106.0,74.0,59.0,12.50,0,0.00,13.70*28
$GPRMC,095410.000,A,2450.5612,N,12112.0388,E,31.86,7.3,190921,,,A*6C
$RC3,095410.000,,0.052,0.295,0.512,,,,11240.0,,87.1,106.0,74.1,59.0,12.50,0,0.00,13.70*26
$GPRMC,095410.000,A,2450.5612,N,12112.0388,E,31.86,4.7,190921,,,A*6B
$RC3,095410.000,,0.007,0.296,0.399,,,,11298.0,,94.9,106.0,74.2,59.0,12.60,0,0.00,13.70*2F
$GPRMC,095410.100,A,2450.5621,N,12112.0389,E,31.86,2.7,190921,,,A*6D
$RC3,095410.100,,0.013,0.341,0.368,,,,11343.0,,98.8,106.0,74.5,59.0,12.70,0,0.00,13.80*2D
$GPRMC,095410.100,A,2450.5621,N,12112.0389,E,31.86,0.3,190921,,,A*6B
$RC3,095410.100,,0.036,0.294,0.345,,,,11387.0,,98.8,106.0,74.7,59.0,12.80,0,8.00,13.70*2E
$GPRMC,095410.200,A,2450.5630,N,12112.0389,E,32.40,357.9,190921,,,A*6A
$RC3,095410.200,,-0.015,0.295,0.293,,,,11402.0,,98.8,106.0,74.5,60.0,12.80,0,15.00,13.70*34
$GPRMC,095410.300,A,2450.5639,N,12112.0388,E,32.40,356.1,190921,,,A*6A
$RC3,095410.300,,0.003,0.274,0.339,,,,11395.0,,98.8,106.0,74.7,60.0,12.80,0,20.00,13.70*1C
$GPRMC,095410.300,A,2450.5639,N,12112.0388,E,32.40,353.6,190921,,,A*68
$RC3,095410.300,,0.011,0.252,0.250,,,,11395.0,,98.8,106.0,74.9,60.0,12.80,0,23.00,13.70*18
$GPRMC,095410.400,A,2450.5648,N,12112.0387,E,32.94,351.8,190921,,,A*63
$RC3,095410.400,,-0.053,0.234,0.234,,,,11417.0,,98.4,106.0,75.5,61.0,12.80,0,26.00,13.70*3E
$GPRMC,095410.500,A,2450.5657,N,12112.0385,E,32.94,349.8,190921,,,A*67
$RC3,095410.500,,-0.005,0.209,0.322,,,,11432.0,,95.3,106.0,75.1,61.0,12.80,0,28.00,13.70*33
$GPRMC,095410.500,A,2450.5657,N,12112.0385,E,32.94,347.6,190921,,,A*67
$RC3,095410.500,,0.013,0.280,0.355,,,,11410.0,,92.9,106.0,75.6,61.0,12.80,0,31.00,13.70*1A
$GPRMC,095410.600,A,2450.5666,N,12112.0382,E,33.48,346.0,190921,,,A*66
$RC3,095410.600,,0.004,0.305,0.461,,,,11425.0,,91.4,106.0,76.4,62.0,12.80,0,33.00,13.70*1B
$GPRMC,095410.600,A,2450.5666,N,12112.0382,E,33.48,344.1,190921,,,A*65
$RC3,095410.600,,-0.011,0.225,0.361,,,,11440.0,,89.4,106.0,77.3,62.0,12.80,0,34.00,13.70*3D
$GPRMC,095410.700,A,2450.5675,N,12112.0380,E,33.48,341.9,190921,,,A*69
$RC3,095410.700,,-0.009,0.207,0.337,,,,11455.0,,87.1,106.0,77.0,62.0,12.80,0,35.00,13.70*3B
$GPRMC,095410.800,A,2450.5684,N,12112.0376,E,33.48,340.3,190921,,,A*6A
$RC3,095410.800,,0.053,0.223,0.339,,,,11463.0,,90.2,106.0,77.9,62.0,12.80,0,37.00,13.70*15
$GPRMC,095410.800,A,2450.5684,N,12112.0376,E,33.48,338.5,190921,,,A*63
$RC3,095410.800,,0.073,0.205,0.406,,,,11463.0,,89.0,106.0,78.0,62.0,12.80,0,38.00,13.70*1B
$GPRMC,095410.900,A,2450.5693,N,12112.0373,E,33.48,336.8,190921,,,A*62
$RC3,095410.900,,0.010,0.188,0.358,,,,11470.0,,92.5,106.0,78.8,62.0,12.80,0,40.00,13.70*1F
$GPRMC,095411.000,A,2450.5701,N,12112.0368,E,34.02,334.5,190921,,,A*6C
$RC3,095411.000,,-0.013,0.162,0.335,,,,11470.0,,94.9,106.0,78.6,63.0,12.80,0,41.00,13.70*32
$GPRMC,095411.000,A,2450.5701,N,12112.0368,E,34.02,332.4,190921,,,A*6B
$RC3,095411.000,,-0.028,0.193,0.290,,,,11478.0,,97.3,106.0,78.1,63.0,12.80,0,43.00,13.70*3E
$GPRMC,095411.100,A,2450.5710,N,12112.0363,E,34.02,330.8,190921,,,A*6F
$RC3,095411.100,,0.010,0.204,0.335,,,,11478.0,,95.3,106.0,78.3,63.0,12.80,0,44.00,13.70*1D
$GPRMC,095411.100,A,2450.5710,N,12112.0363,E,34.02,328.5,190921,,,A*6B
$RC3,095411.100,,-0.026,0.197,0.294,,,,11478.0,,98.4,106.0,79.0,63.0,12.80,0,44.00,13.70*3E
$GPRMC,095411.200,A,2450.5718,N,12112.0357,E,34.56,326.6,190921,,,A*6B
$RC3,095411.200,,0.069,0.146,0.333,,,,11493.0,,99.2,106.0,79.5,64.0,12.80,0,44.00,13.70*1B
$GPRMC,095411.300,A,2450.5726,N,12112.0351,E,34.56,325.0,190921,,,A*64
$RC3,095411.300,,0.062,0.205,0.296,,,,11501.0,,99.2,106.0,79.8,64.0,12.80,0,43.00,13.70*1B
$GPRMC,095411.300,A,2450.5726,N,12112.0351,E,34.56,322.8,190921,,,A*6B
$RC3,095411.300,,0.057,0.192,0.318,,,,11508.0,,99.2,106.0,80.0,64.0,12.80,0,43.00,13.70*10
$GPRMC,095411.400,A,2450.5733,N,12112.0345,E,35.10,321.3,190921,,,A*66
$RC3,095411.400,,0.049,0.179,0.362,,,,11501.0,,99.2,106.0,79.6,65.0,12.80,0,43.00,13.70*18
$GPRMC,095411.500,A,2450.5741,N,12112.0338,E,35.10,319.3,190921,,,A*63
$RC3,095411.500,,0.080,0.159,0.397,,,,11493.0,,99.2,106.0,80.1,65.0,12.80,0,44.00,13.70*18
$GPRMC,095411.500,A,2450.5741,N,12112.0338,E,35.10,317.3,190921,,,A*6D
$RC3,095411.500,,0.044,0.220,0.380,,,,11463.0,,99.2,106.0,79.1,65.0,12.80,0,45.00,13.70*13
$GPRMC,095411.600,A,2450.5748,N,12112.0330,E,35.64,315.9,190921,,,A*64
$RC3,095411.600,,0.074,0.244,0.436,,,,11417.0,,90.2,106.0,78.1,66.0,12.80,0,46.00,13.70*10
$GPRMC,095411.600,A,2450.5748,N,12112.0330,E,35.64,314.2,190921,,,A*6E
$RC3,095411.600,,0.084,0.256,0.375,,,,11372.0,,72.9,106.0,78.5,66.0,12.80,0,45.00,13.70*18
$GPRMC,095411.700,A,2450.5754,N,12112.0322,E,35.64,312.8,190921,,,A*6D
$RC3,095411.700,,0.116,0.249,0.422,,,,11233.0,,30.6,106.0,78.0,66.0,12.50,0,45.00,13.70*1D
$GPRMC,095411.800,A,2450.5761,N,12112.0313,E,35.64,311.8,190921,,,A*65
$RC3,095411.800,,0.102,0.247,0.498,,,,10607.0,,0.0,106.0,78.0,66.0,12.50,0,45.00,13.80*20
$GPRMC,095411.800,A,2450.5761,N,12112.0313,E,35.64,310.8,190921,,,A*64
$RC3,095411.800,,0.054,0.213,0.501,,,,10036.0,,0.0,106.0,77.3,66.0,12.50,0,42.00,13.90*2C
$GPRMC,095411.900,A,2450.5767,N,12112.0304,E,36.18,310.2,190921,,,A*67
$RC3,095411.900,,0.024,0.216,0.507,,,,9587.0,,0.0,106.0,76.9,67.0,12.50,0,37.00,14.10*19
$GPRMC,095412.000,A,2450.5767,N,12112.0304,E,36.18,309.5,190921,,,A*62
$RC3,095412.000,,-0.015,0.232,0.485,,,,9254.0,,0.0,106.0,76.2,67.0,12.50,0,31.00,14.20*36
$GPRMC,095412.000,A,2450.5773,N,12112.0296,E,35.64,309.2,190921,,,A*62
$RC3,095412.000,,-0.120,0.142,0.473,,,,8898.0,,0.0,106.0,73.8,66.0,12.50,0,25.00,14.20*3C
$GPRMC,095412.100,A,2450.5779,N,12112.0287,E,35.64,309.2,190921,,,A*69
$RC3,095412.100,,-0.206,0.035,0.357,,,,8603.0,,0.4,106.0,72.7,66.0,12.50,0,17.00,14.10*3E
$GPRMC,095412.100,A,2450.5779,N,12112.0287,E,35.64,309.4,190921,,,A*6F
$RC3,095412.100,,-0.239,-0.065,0.371,,,,8338.0,,0.0,106.0,72.8,66.0,12.50,0,11.00,14.20*1D
$GPRMC,095412.200,A,2450.5784,N,12112.0278,E,35.64,310.4,190921,,,A*66
$RC3,095412.200,,-0.233,-0.173,0.412,,,,8115.0,,0.0,106.0,71.2,66.0,12.50,0,7.00,14.20*23
$GPRMC,095412.300,A,2450.5790,N,12112.0270,E,34.56,310.0,190921,,,A*6E
$RC3,095412.300,,-0.234,-0.177,0.641,,,,7901.0,,0.0,106.0,70.1,64.0,12.50,0,4.00,14.20*24
$GPRMC,095412.300,A,2450.5790,N,12112.0270,E,34.56,310.5,190921,,,A*6B
$RC3,095412.300,,-0.251,-0.189,0.826,,,,7711.0,,0.0,106.0,69.5,64.0,12.50,0,3.00,14.20*2D
$GPRMC,095412.400,A,2450.5796,N,12112.0262,E,33.48,311.1,190921,,,A*64
$RC3,095412.400,,-0.227,-0.272,0.979,,,,7570.0,,0.0,106.0,68.1,62.0,12.50,0,2.00,14.20*20
$GPRMC,095412.500,A,2450.5802,N,12112.0262,E,33.48,312.2,190921,,,A*67
$RC3,095412.500,,-0.154,-0.250,0.952,,,,7434.0,,0.0,106.0,66.6,62.0,12.50,0,0.00,14.20*25
$GPRMC,095412.500,A,2450.5802,N,12112.0254,E,31.86,313.4,190921,,,A*65
$RC3,095412.500,,-0.201,-0.243,0.987,,,,7299.0,,0.0,106.0,65.5,59.0,12.50,0,-2.00,14.20*0A
$GPRMC,095412.600,A,2450.5807,N,12112.0248,E,30.78,314.4,190921,,,A*69
$RC3,095412.600,,-0.166,-0.221,1.112,,,,7184.0,,0.0,106.0,64.5,57.0,12.50,0,-4.00,14.20*0C
$GPRMC,095412.600,A,2450.5807,N,12112.0248,E,30.78,315.7,190921,,,A*6B
$RC3,095412.600,,-0.154,-0.243,1.134,,,,7079.0,,0.0,106.0,63.3,57.0,12.50,0,-6.00,14.20*0D
$GPRMC,095412.700,A,2450.5813,N,12112.0241,E,29.70,315.9,190921,,,A*68
$RC3,095412.700,,-0.138,-0.190,1.201,,,,6999.0,,0.0,106.0,62.6,55.0,12.50,0,-10.00,14.20*39
$GPRMC,095412.800,A,2450.5819,N,12112.0236,E,28.62,319.0,190921,,,A*6A
$RC3,095412.800,,-0.117,-0.164,1.196,,,,6907.0,,0.0,106.0,62.0,53.0,12.50,0,-12.00,14.20*38
$GPRMC,095412.800,A,2450.5819,N,12112.0236,E,28.62,321.0,190921,,,A*61
$RC3,095412.800,,-0.120,-0.118,1.189,,,,6839.0,,0.0,106.0,61.1,53.0,12.50,0,-15.00,14.20*30
$GPRMC,095412.900,A,2450.5825,N,12112.0230,E,27.54,322.8,190921,,,A*68
$RC3,095412.900,,-0.096,-0.066,1.221,,,,6788.0,,0.0,106.0,60.3,51.0,12.50,0,-17.00,14.20*32
$GPRMC,095412.900,A,2450.5825,N,12112.0230,E,27.54,325.4,190921,,,A*63
$RC3,095412.900,,-0.100,-0.048,1.234,,,,6719.0,,0.4,106.0,59.3,51.0,12.50,0,-21.00,14.20*37
$GPRMC,095413.000,A,2450.5831,N,12112.0226,E,26.46,327.7,190921,,,A*6A
$RC3,095413.000,,-0.118,-0.017,1.281,,,,6668.0,,0.0,106.0,58.8,49.0,12.50,0,-23.00,14.20*30
$GPRMC,095413.100,A,2450.5837,N,12112.0221,E,25.92,329.8,190921,,,A*61
$RC3,095413.100,,-0.145,0.012,1.280,,,,6629.0,,0.0,106.0,58.4,48.0,12.50,0,-25.00,14.20*1E
$GPRMC,095413.100,A,2450.5837,N,12112.0221,E,25.92,332.6,190921,,,A*65
$RC3,095413.100,,-0.133,0.043,1.271,,,,6604.0,,0.0,106.0,57.5,48.0,12.50,0,-27.00,14.20*16
$GPRMC,095413.200,A,2450.5843,N,12112.0218,E,25.38,334.9,190921,,,A*66
$RC3,095413.200,,-0.118,0.050,1.308,,,,6557.0,,0.0,106.0,56.5,47.0,12.50,0,-30.00,14.20*1C
$GPRMC,095413.300,A,2450.5849,N,12112.0215,E,24.84,337.7,190921,,,A*6B
$RC3,095413.300,,-0.110,0.036,1.291,,,,6498.0,,0.0,106.0,55.2,46.0,12.50,0,-32.00,14.20*11
$GPRMC,095413.300,A,2450.5849,N,12112.0215,E,24.84,341.0,190921,,,A*6D
$RC3,095413.300,,-0.095,0.056,1.301,,,,6461.0,,0.0,106.0,54.5,46.0,12.50,0,-34.00,14.20*15
$GPRMC,095413.400,A,2450.5855,N,12112.0213,E,23.76,343.4,190921,,,A*6D
$RC3,095413.400,,-0.058,0.057,1.321,,,,6399.0,,0.0,106.0,53.2,44.0,12.50,0,-36.00,14.20*10
$GPRMC,095413.400,A,2450.5855,N,12112.0213,E,23.76,346.4,190921,,,A*68
$RC3,095413.400,,-0.059,0.062,1.303,,,,6357.0,,0.0,106.0,53.1,44.0,12.50,0,-37.00,14.20*17
$GPRMC,095413.500,A,2450.5862,N,12112.0211,E,23.22,349.9,190921,,,A*6C
$RC3,095413.500,,-0.064,0.085,1.341,,,,6311.0,,0.0,106.0,52.1,43.0,12.50,0,-38.00,14.20*1C
$GPRMC,095413.600,A,2450.5868,N,12112.0210,E,22.68,352.4,190921,,,A*6C
$RC3,095413.600,,-0.130,0.065,1.369,,,,6293.0,,0.0,106.0,51.3,42.0,12.50,0,-39.00,14.20*11
$GPRMC,095413.600,A,2450.5868,N,12112.0210,E,22.68,355.4,190921,,,A*6B
$RC3,095413.600,,-0.110,0.105,1.368,,,,6205.0,,0.4,106.0,51.0,42.0,12.50,0,-40.00,14.20*13
$GPRMC,095413.700,A,2450.5874,N,12112.0209,E,22.14,358.1,190921,,,A*6C
$RC3,095413.700,,-0.083,0.147,1.386,,,,6174.0,,0.0,106.0,50.1,41.0,12.50,0,-41.00,14.20*1C
$GPRMC,095413.800,A,2450.5880,N,12112.0210,E,21.60,1.7,190921,,,A*69
$RC3,095413.800,,-0.064,0.066,1.297,,,,6137.0,,0.0,106.0,48.9,40.0,12.50,0,-42.00,14.20*1D
$GPRMC,095413.800,A,2450.5880,N,12112.0210,E,21.60,5.5,190921,,,A*6F
$RC3,095413.800,,-0.119,0.039,1.442,,,,6098.0,,0.0,106.0,48.3,40.0,12.50,0,-43.00,14.30*1C
$GPRMC,095413.900,A,2450.5886,N,12112.0210,E,21.06,8.6,190921,,,A*66
$RC3,095413.900,,-0.165,0.054,1.513,,,,6068.0,,0.0,106.0,48.5,39.0,12.50,0,-44.00,14.20*19
$GPRMC,095413.900,A,2450.5886,N,12112.0210,E,21.06,13.0,190921,,,A*5A
$RC3,095413.900,,-0.171,-0.004,1.493,,,,6022.0,,0.4,106.0,45.9,39.0,12.50,0,-45.00,14.20*37
$GPRMC,095414.000,A,2450.5891,N,12112.0211,E,19.98,17.0,190921,,,A*5B
$RC3,095414.000,,-0.183,0.026,1.498,,,,5972.0,,0.0,106.0,45.9,37.0,12.50,0,-46.00,14.20*14
$GPRMC,095414.100,A,2450.5896,N,12112.0213,E,19.44,20.3,190921,,,A*59
$RC3,095414.100,,-0.194,0.116,1.500,,,,5921.0,,14.9,106.0,46.5,36.0,12.50,0,-47.00,14.20*24
$GPRMC,095414.100,A,2450.5896,N,12112.0213,E,19.44,24.7,190921,,,A*59
$RC3,095414.100,,-0.157,0.096,1.471,,,,6241.0,,49.0,106.0,45.5,36.0,12.50,0,-48.00,14.00*24
$GPRMC,095414.200,A,2450.5901,N,12112.0216,E,19.44,28.5,190921,,,A*5E
$RC3,095414.200,,-0.126,0.222,1.393,,,,6683.0,,86.7,106.0,45.5,36.0,12.50,0,-49.00,13.90*26
$GPRMC,095414.300,A,2450.5905,N,12112.0219,E,18.90,32.5,190921,,,A*57
$RC3,095414.300,,-0.131,0.207,1.253,,,,7238.0,,90.6,106.0,45.1,35.0,12.60,0,-49.00,13.80*2D
$GPRMC,095414.300,A,2450.5905,N,12112.0219,E,18.90,36.8,190921,,,A*5E
$RC3,095414.300,,-0.164,0.219,1.183,,,,7657.0,,98.8,106.0,45.9,35.0,12.80,0,-49.00,13.80*21
$GPRMC,095414.400,A,2450.5909,N,12112.0222,E,18.36,40.3,190921,,,A*5B
$RC3,095414.400,,-0.135,0.252,1.180,,,,8200.0,,99.2,106.0,46.0,34.0,12.80,0,-49.00,13.80*27
$GPRMC,095414.500,A,2450.5913,N,12112.0226,E,18.36,45.0,190921,,,A*53
$RC3,095414.500,,-0.114,0.331,1.152,,,,8620.0,,98.8,106.0,46.1,34.0,12.80,0,-50.00,13.70*25
$GPRMC,095414.500,A,2450.5913,N,12112.0226,E,18.36,49.3,190921,,,A*5C
$RC3,095414.500,,-0.116,0.344,1.131,,,,8991.0,,99.2,106.0,46.0,34.0,12.80,0,-51.00,13.70*2E
$GPRMC,095414.600,A,2450.5916,N,12112.0230,E,18.36,52.9,190921,,,A*5D
$RC3,095414.600,,-0.129,0.354,1.125,,,,9259.0,,98.8,106.0,46.8,34.0,12.80,0,-51.00,13.70*28
$GPRMC,095414.600,A,2450.5916,N,12112.0230,E,18.36,58.0,190921,,,A*5E
$RC3,095414.600,,-0.112,0.321,0.908,,,,9524.0,,98.8,106.0,46.9,34.0,12.80,0,-51.00,13.70*28
$GPRMC,095414.700,A,2450.5918,N,12112.0235,E,18.36,62.8,190921,,,A*55
$RC3,095414.700,,-0.070,0.272,0.696,,,,9683.0,,98.8,106.0,46.4,34.0,12.80,0,-52.00,13.70*23
$GPRMC,095414.800,A,2450.5921,N,12112.0240,E,18.36,66.2,190921,,,A*5C
$RC3,095414.800,,-0.100,0.254,0.544,,,,9854.0,,98.8,106.0,47.3,34.0,12.80,0,-51.00,13.80*2C
$GPRMC,095414.800,A,2450.5921,N,12112.0240,E,18.36,70.1,190921,,,A*58
$RC3,095414.800,,-0.056,0.191,0.467,,,,10042.0,,98.8,106.0,47.5,34.0,12.80,0,-51.00,13.90*14
$GPRMC,095414.900,A,2450.5922,N,12112.0246,E,18.90,73.2,190921,,,A*50
$RC3,095414.900,,-0.033,0.139,0.497,,,,10160.0,,98.8,106.0,47.3,35.0,12.80,0,-50.00,13.80*1D
$GPRMC,095415.000,A,2450.5923,N,12112.0252,E,19.44,76.9,190921,,,A*5A
$RC3,095415.000,,-0.078,0.147,0.442,,,,10305.0,,98.8,106.0,48.1,36.0,12.80,0,-49.00,13.70*13
$GPRMC,095415.000,A,2450.5923,N,12112.0252,E,19.44,80.8,190921,,,A*52
$RC3,095415.000,,-0.105,0.127,0.365,,,,10404.0,,98.8,106.0,48.0,36.0,12.80,0,-48.00,13.70*1A
$GPRMC,095415.100,A,2450.5924,N,12112.0258,E,19.44,83.6,190921,,,A*53
$RC3,095415.100,,-0.122,0.196,0.431,,,,10511.0,,98.8,106.0,49.4,36.0,12.80,0,-47.00,13.70*1D
$GPRMC,095415.100,A,2450.5924,N,12112.0258,E,19.44,86.8,190921,,,A*58
$RC3,095415.100,,-0.144,0.251,0.449,,,,10640.0,,98.8,106.0,50.0,36.0,12.80,0,-46.00,13.70*10
$GPRMC,095415.200,A,2450.5924,N,12112.0264,E,20.52,89.9,190921,,,A*57
$RC3,095415.200,,-0.122,0.339,0.437,,,,10725.0,,99.2,106.0,50.2,38.0,12.80,0,-45.00,13.70*13
$GPRMC,095415.300,A,2450.5924,N,12112.0271,E,21.06,92.4,190921,,,A*55
$RC3,095415.300,,-0.117,0.343,0.361,,,,10812.0,,98.8,106.0,51.1,39.0,12.80,0,-44.00,13.70*1F
$GPRMC,095415.300,A,2450.5924,N,12112.0271,E,21.06,95.5,190921,,,A*53
$RC3,095415.300,,-0.109,0.360,0.293,,,,10839.0,,98.8,106.0,51.0,39.0,12.80,0,-44.00,13.70*15
$GPRMC,095415.400,A,2450.5923,N,12112.0278,E,21.60,97.8,190921,,,A*55
$RC3,095415.400,,-0.104,0.359,0.226,,,,10935.0,,99.2,106.0,52.4,40.0,12.80,0,-42.00,13.70*12
$GPRMC,095415.500,A,2450.5922,N,12112.0285,E,22.68,100.6,190921,,,A*6D
$RC3,095415.500,,-0.141,0.387,0.198,,,,10984.0,,98.8,106.0,52.9,42.0,12.80,0,-41.00,13.70*1A
$GPRMC,095415.500,A,2450.5922,N,12112.0285,E,22.68,103.5,190921,,,A*6D
$RC3,095415.500,,-0.144,0.433,0.218,,,,11046.0,,98.8,106.0,53.7,42.0,12.80,0,-41.00,13.70*15
$GPRMC,095415.600,A,2450.5920,N,12112.0292,E,23.22,105.6,190921,,,A*60
$RC3,095415.600,,-0.176,0.433,0.216,,,,11046.0,,99.2,106.0,54.0,43.0,12.80,0,-40.00,13.70*12
$GPRMC,095415.600,A,2450.5920,N,12112.0292,E,23.22,108.1,190921,,,A*6A
$RC3,095415.600,,-0.153,0.411,0.191,,,,11096.0,,98.8,106.0,54.8,43.0,12.80,0,-39.00,13.70*19
$GPRMC,095415.700,A,2450.5918,N,12112.0299,E,23.76,110.6,190921,,,A*64
$RC3,095415.700,,-0.147,0.454,0.207,,,,11139.0,,98.8,106.0,55.9,44.0,12.80,0,-38.00,13.80*1D
$GPRMC,095415.800,A,2450.5915,N,12112.0306,E,24.30,112.3,190921,,,A*63
$RC3,095415.800,,-0.074,0.459,0.238,,,,11153.0,,98.8,106.0,56.0,45.0,12.80,0,-37.00,13.80*1A
$GPRMC,095415.800,A,2450.5915,N,12112.0306,E,24.30,114.5,190921,,,A*63
$RC3,095415.800,,-0.040,0.528,0.378,,,,11175.0,,98.8,106.0,56.5,45.0,12.80,0,-37.00,13.80*1E
$GPRMC,095415.900,A,2450.5912,N,12112.0313,E,24.84,116.1,190921,,,A*68
$RC3,095415.900,,0.027,0.537,0.400,,,,11182.0,,98.8,106.0,57.7,46.0,12.80,0,-36.00,13.70*33
$GPRMC,095416.000,A,2450.5909,N,12112.0319,E,24.84,118.1,190921,,,A*6C
$RC3,095416.000,,0.015,0.532,0.347,,,,11203.0,,98.8,106.0,57.5,46.0,12.80,0,-36.00,13.70*31
$GPRMC,095416.000,A,2450.5909,N,12112.0319,E,25.38,120.0,190921,,,A*60
$RC3,095416.000,,-0.045,0.494,0.248,,,,11233.0,,98.8,106.0,58.9,47.0,12.80,0,-36.00,13.70*1B
$GPRMC,095416.100,A,2450.5905,N,12112.0326,E,25.92,121.4,190921,,,A*64
$RC3,095416.100,,-0.088,0.467,0.125,,,,11225.0,,98.8,106.0,58.9,48.0,12.80,0,-36.00,13.70*17
$GPRMC,095416.100,A,2450.5905,N,12112.0326,E,25.92,123.0,190921,,,A*62
$RC3,095416.100,,-0.060,0.388,0.065,,,,11247.0,,98.8,106.0,59.2,48.0,12.80,0,-36.00,13.70*1C
$GPRMC,095416.200,A,2450.5901,N,12112.0333,E,26.46,124.6,190921,,,A*6A
$RC3,095416.200,,-0.036,0.284,0.003,,,,11225.0,,98.8,106.0,59.9,49.0,12.80,0,-34.00,13.70*1D
$GPRMC,095416.300,A,2450.5896,N,12112.0340,E,27.00,125.8,190921,,,A*6C
$RC3,095416.300,,0.012,0.410,0.144,,,,11247.0,,98.8,106.0,60.8,50.0,12.80,0,-33.00,13.70*3E
$GPRMC,095416.300,A,2450.5896,N,12112.0340,E,27.00,127.5,190921,,,A*63
$RC3,095416.300,,0.130,0.407,0.273,,,,11240.0,,98.8,106.0,61.5,50.0,12.80,0,-32.00,13.70*34
$GPRMC,095416.400,A,2450.5892,N,12112.0346,E,27.54,128.6,190921,,,A*6B
$RC3,095416.400,,0.225,0.497,0.420,,,,11240.0,,98.8,106.0,62.5,51.0,12.80,0,-31.00,13.70*3C
$GPRMC,095416.500,A,2450.5887,N,12112.0353,E,27.54,129.9,190921,,,A*64
$RC3,095416.500,,0.249,0.501,0.590,,,,11262.0,,98.8,106.0,62.1,51.0,12.80,0,-31.00,13.70*37
$GPRMC,095416.500,A,2450.5887,N,12112.0353,E,27.54,131.3,190921,,,A*67
$RC3,095416.500,,0.150,0.514,0.545,,,,11247.0,,98.8,106.0,62.4,51.0,12.80,0,-31.00,13.70*32
$GPRMC,095416.600,A,2450.5881,N,12112.0359,E,28.08,132.4,190921,,,A*6A
$RC3,095416.600,,0.028,0.443,0.272,,,,11240.0,,98.8,106.0,63.5,52.0,12.80,0,-31.00,13.70*3B
$GPRMC,095416.600,A,2450.5881,N,12112.0359,E,28.08,133.8,190921,,,A*67
$RC3,095416.600,,0.074,0.371,0.204,,,,11240.0,,97.6,106.0,63.1,52.0,12.80,0,-32.00,13.70*33
$GPRMC,095416.700,A,2450.5876,N,12112.0366,E,29.16,136.1,190921,,,A*60
$RC3,095416.700,,0.071,0.323,0.144,,,,11247.0,,96.1,106.0,63.9,54.0,12.80,0,-31.00,13.70*3B
$GPRMC,095416.800,A,2450.5870,N,12112.0372,E,29.16,135.8,190921,,,A*66
$RC3,095416.800,,0.107,0.371,0.056,,,,11247.0,,98.4,106.0,64.8,54.0,12.80,0,-29.00,13.70*35
$GPRMC,095416.800,A,2450.5870,N,12112.0372,E,29.16,136.3,190921,,,A*6E
$RC3,095416.800,,0.085,0.445,0.190,,,,11269.0,,98.8,106.0,65.4,54.0,12.80,0,-28.00,13.70*39
$GPRMC,095416.900,A,2450.5864,N,12112.0378,E,29.70,136.9,190921,,,A*6A
$RC3,095416.900,,0.194,0.476,0.336,,,,11269.0,,98.4,106.0,66.0,55.0,12.80,0,-28.00,13.70*3D
$GPRMC,095417.000,A,2450.5857,N,12112.0378,E,29.70,137.9,190921,,,A*63
$RC3,095417.000,,0.260,0.480,0.383,,,,11284.0,,98.8,106.0,66.5,55.0,12.80,0,-28.00,13.70*30
$GPRMC,095417.000,A,2450.5857,N,12112.0385,E,30.24,138.6,190921,,,A*68
$RC3,095417.000,,0.206,0.478,0.356,,,,11276.0,,98.8,106.0,66.0,56.0,12.80,0,-27.00,13.70*3B
$GPRMC,095417.100,A,2450.5851,N,12112.0391,E,30.78,139.1,190921,,,A*65
$RC3,095417.100,,0.129,0.442,0.326,,,,11284.0,,98.4,106.0,67.4,57.0,12.80,0,-25.00,13.70*3D
$GPRMC,095417.100,A,2450.5851,N,12112.0391,E,30.78,139.7,190921,,,A*63
$RC3,095417.100,,0.061,0.361,0.254,,,,11298.0,,98.8,106.0,68.3,57.0,12.80,0,-23.00,13.70*3D
$GPRMC,095417.200,A,2450.5844,N,12112.0397,E,30.78,139.4,190921,,,A*61
$RC3,095417.200,,0.036,0.331,0.178,,,,11298.0,,98.8,106.0,68.0,57.0,12.80,0,-21.00,13.70*35
$GPRMC,095417.300,A,2450.5837,N,12112.0403,E,31.32,140.9,190921,,,A*62
$RC3,095417.300,,0.055,0.341,0.117,,,,11313.0,,99.2,106.0,68.4,58.0,12.80,0,-20.00,13.70*3C
$GPRMC,095417.300,A,2450.5837,N,12112.0403,E,31.32,141.8,190921,,,A*62
$RC3,095417.300,,0.048,0.368,0.120,,,,11313.0,,98.8,106.0,69.0,58.0,12.80,0,-18.00,13.70*3A
$GPRMC,095417.400,A,2450.5830,N,12112.0409,E,31.86,142.5,190921,,,A*69
$RC3,095417.400,,0.067,0.474,0.334,,,,11343.0,,98.8,106.0,69.7,59.0,12.80,0,-17.00,13.70*31
$GPRMC,095417.500,A,2450.5823,N,12112.0415,E,32.40,143.2,190921,,,A*68
$RC3,095417.500,,0.104,0.413,0.405,,,,11350.0,,98.8,106.0,69.9,60.0,12.80,0,-16.00,13.70*37
$GPRMC,095417.500,A,2450.5823,N,12112.0415,E,32.40,143.8,190921,,,A*62
$RC3,095417.500,,0.132,0.457,0.435,,,,11380.0,,98.4,106.0,70.9,60.0,12.80,0,-15.00,13.70*3B
$GPRMC,095417.600,A,2450.5815,N,12112.0421,E,32.94,144.2,190921,,,A*67
$RC3,095417.600,,0.104,0.424,0.334,,,,11380.0,,98.8,106.0,71.7,61.0,12.80,0,-14.00,13.70*3C
$GPRMC,095417.600,A,2450.5815,N,12112.0421,E,32.94,144.8,190921,,,A*6D
$RC3,095417.600,,0.065,0.372,0.266,,,,11387.0,,98.8,106.0,71.7,61.0,12.80,0,-14.00,13.70*3F
$GPRMC,095417.700,A,2450.5808,N,12112.0426,E,32.94,145.2,190921,,,A*6C
$RC3,095417.700,,0.027,0.328,0.172,,,,11395.0,,98.8,106.0,72.7,61.0,12.80,0,-13.00,13.70*36
$GPRMC,095417.800,A,2450.5800,N,12112.0432,E,33.48,145.6,190921,,,A*6A
$RC3,095417.800,,0.072,0.266,0.113,,,,11395.0,,98.8,106.0,73.0,62.0,12.80,0,-13.00,13.70*30
$GPRMC,095417.800,A,2450.5800,N,12112.0432,E,33.48,145.9,190921,,,A*65
$RC3,095417.800,,0.074,0.304,0.222,,,,11387.0,,98.8,106.0,73.4,62.0,12.80,0,-13.00,13.70*35
$GPRMC,095417.900,A,2450.5792,N,12112.0438,E,34.02,146.2,190921,,,A*6B
$RC3,095417.900,,0.153,0.389,0.327,,,,11395.0,,98.8,106.0,73.6,63.0,12.80,0,-13.00,13.70*31
$GPRMC,095418.000,A,2450.5784,N,12112.0444,E,34.02,146.5,190921,,,A*66
$RC3,095418.000,,0.163,0.358,0.416,,,,11395.0,,98.8,106.0,74.0,63.0,12.80,0,-12.00,13.70*3D
$GPRMC,095418.000,A,2450.5784,N,12112.0444,E,34.02,146.9,190921,,,A*6A
$RC3,095418.000,,0.135,0.388,0.377,,,,11402.0,,99.2,106.0,74.8,63.0,12.80,0,-12.00,13.70*39
$GPRMC,095418.100,A,2450.5776,N,12112.0450,E,34.56,147.2,190921,,,A*68
$RC3,095418.100,,0.075,0.412,0.368,,,,11417.0,,98.8,106.0,74.9,64.0,12.80,0,-12.00,13.70*3E
$GPRMC,095418.100,A,2450.5776,N,12112.0450,E,34.56,147.4,190921,,,A*6E
$RC3,095418.100,,0.031,0.447,0.343,,,,11448.0,,98.8,106.0,75.1,64.0,12.80,0,-11.00,13.70*37
$GPRMC,095418.200,A,2450.5768,N,12112.0455,E,35.10,147.9,190921,,,A*69
$RC3,095418.200,,0.074,0.397,0.231,,,,11448.0,,98.8,106.0,75.8,65.0,12.80,0,-10.00,13.70*32
$GPRMC,095418.300,A,2450.5759,N,12112.0461,E,35.10,148.0,190921,,,A*6B
$RC3,095418.300,,0.019,0.290,0.183,,,,11448.0,,98.8,106.0,75.7,65.0,12.80,0,-9.00,13.70*03
$GPRMC,095418.300,A,2450.5759,N,12112.0461,E,35.10,148.1,190921,,,A*6A
$RC3,095418.300,,-0.003,0.243,0.182,,,,11463.0,,98.8,106.0,75.8,65.0,12.80,0,-8.00,13.70*2D
$GPRMC,095418.400,A,2450.5751,N,12112.0467,E,35.64,148.2,190921,,,A*63
$RC3,095418.400,,-0.004,0.237,0.232,,,,11470.0,,98.8,106.0,76.6,66.0,12.80,0,-6.00,13.70*24
$GPRMC,095418.500,A,2450.5742,N,12112.0472,E,35.64,148.1,190921,,,A*67
$RC3,095418.500,,-0.023,0.238,0.272,,,,11485.0,,98.8,106.0,77.0,66.0,12.80,0,-6.00,13.70*26
$GPRMC,095418.500,A,2450.5742,N,12112.0472,E,35.64,148.1,190921,,,A*67
$RC3,095418.500,,0.017,0.174,0.354,,,,11493.0,,98.8,106.0,77.4,66.0,12.80,0,-5.00,13.70*02
$GPRMC,095418.600,A,2450.5734,N,12112.0478,E,36.18,148.0,190921,,,A*66
$RC3,095418.600,,0.086,0.151,0.377,,,,11493.0,,98.8,106.0,78.5,67.0,12.80,0,-4.00,13.70*01
$GPRMC,095418.600,A,2450.5734,N,12112.0478,E,36.18,147.9,190921,,,A*60
$RC3,095418.600,,0.103,0.074,0.348,,,,11501.0,,98.8,106.0,78.8,67.0,12.80,0,-4.00,13.70*00
$GPRMC,095418.700,A,2450.5725,N,12112.0484,E,36.18,147.6,190921,,,A*6D
$RC3,095418.700,,0.027,0.099,0.390,,,,11516.0,,98.8,106.0,79.4,67.0,12.80,0,-3.00,13.70*0C
$GPRMC,095418.800,A,2450.5716,N,12112.0490,E,36.72,147.4,190921,,,A*69
$RC3,095418.800,,0.016,0.100,0.344,,,,11531.0,,98.8,106.0,80.0,68.0,12.80,0,-3.00,13.70*01
$GPRMC,095418.800,A,2450.5716,N,12112.0490,E,36.72,147.2,190921,,,A*6F
$RC3,095418.800,,-0.014,0.134,0.406,,,,11524.0,,98.8,106.0,79.8,68.0,12.80,0,-2.00,13.70*23
$GPRMC,095418.900,A,2450.5708,N,12112.0496,E,36.72,147.0,190921,,,A*65
$RC3,095418.900,,-0.075,0.203,0.376,,,,11524.0,,98.8,106.0,80.0,68.0,12.80,0,-2.00,13.70*2C
$GPRMC,095419.000,A,2450.5699,N,12112.0502,E,37.26,146.7,190921,,,A*6E
$RC3,095419.000,,-0.040,0.109,0.296,,,,11531.0,,98.8,106.0,80.9,69.0,12.80,0,-2.00,13.70*28
$GPRMC,095419.000,A,2450.5699,N,12112.0502,E,37.26,146.2,190921,,,A*6B
$RC3,095419.000,,-0.238,0.003,0.172,,,,11524.0,,98.8,106.0,81.4,69.0,12.80,0,-2.00,13.70*2F
$GPRMC,095419.100,A,2450.5690,N,12112.0509,E,37.26,146.0,190921,,,A*6A
$RC3,095419.100,,-0.233,-0.059,0.226,,,,11524.0,,98.8,107.0,81.7,69.0,12.80,0,-2.00,13.70*07
$GPRMC,095419.100,A,2450.5690,N,12112.0509,E,37.26,145.7,190921,,,A*6E
$RC3,095419.100,,-0.110,-0.057,0.183,,,,11547.0,,98.8,107.0,82.1,69.0,12.80,0,-2.00,13.70*07
$GPRMC,095419.200,A,2450.5681,N,12112.0515,E,37.80,145.3,190921,,,A*68
$RC3,095419.200,,-0.002,-0.003,0.234,,,,11531.0,,98.8,107.0,82.7,70.0,12.80,0,-1.00,13.70*04
$GPRMC,095419.300,A,2450.5673,N,12112.0522,E,37.80,145.0,190921,,,A*63
$RC3,095419.300,,0.063,0.030,0.310,,,,11539.0,,98.8,107.0,83.5,70.0,12.80,0,-1.00,13.70*0E
$GPRMC,095419.300,A,2450.5673,N,12112.0522,E,37.80,144.7,190921,,,A*65
$RC3,095419.300,,0.048,0.132,0.362,,,,11531.0,,98.8,107.0,83.3,70.0,12.80,0,-1.00,13.70*0F
$GPRMC,095419.400,A,2450.5664,N,12112.0529,E,38.34,144.4,190921,,,A*6C
$RC3,095419.400,,0.020,0.185,0.487,,,,11531.0,,98.8,107.0,83.7,71.0,12.80,0,-1.00,13.70*03
$GPRMC,095419.500,A,2450.5655,N,12112.0536,E,38.34,144.1,190921,,,A*64
$RC3,095419.500,,0.004,0.214,0.486,,,,11516.0,,98.8,107.0,83.7,71.0,12.80,0,-1.00,13.70*0B
$GPRMC,095419.500,A,2450.5655,N,12112.0536,E,38.34,143.9,190921,,,A*6B
$RC3,095419.500,,0.086,0.204,0.475,,,,11516.0,,97.6,107.0,83.4,71.0,12.80,0,5.00,13.60*26
$GPRMC,095419.600,A,2450.5647,N,12112.0543,E,38.88,143.7,190921,,,A*60
$RC3,095419.600,,0.110,0.181,0.451,,,,11485.0,,95.3,107.0,83.2,72.0,12.80,0,8.00,13.70*26
$GPRMC,095419.600,A,2450.5647,N,12112.0543,E,38.88,143.5,190921,,,A*62
$RC3,095419.600,,0.071,0.137,0.438,,,,11463.0,,80.8,107.0,82.1,72.0,12.80,0,8.00,13.70*27
$GPRMC,095419.700,A,2450.5638,N,12112.0550,E,38.88,143.4,190921,,,A*68
$RC3,095419.700,,0.040,0.177,0.384,,,,11440.0,,65.1,107.0,82.9,72.0,12.50,0,7.00,13.70*29
$GPRMC,095419.800,A,2450.5629,N,12112.0558,E,39.42,143.4,190921,,,A*68
$RC3,095419.800,,-0.002,0.160,0.380,,,,11284.0,,32.2,107.0,83.5,73.0,12.50,0,5.00,13.70*0E
$GPRMC,095419.800,A,2450.5629,N,12112.0558,E,39.42,143.7,190921,,,A*6B
$RC3,095419.800,,-0.050,0.135,0.303,,,,10956.0,,12.5,107.0,84.5,73.0,12.50,0,2.00,13.80*0D
$GPRMC,095419.900,A,2450.5621,N,12112.0565,E,38.88,143.9,190921,,,A*65
$RC3,095419.900,,-0.094,0.128,0.289,,,,10466.0,,0.4,107.0,84.8,72.0,12.50,0,-1.00,13.80*15
$GPRMC,095420.000,A,2450.5612,N,12112.0573,E,39.42,144.2,190921,,,A*6A
$RC3,095420.000,,-0.174,0.080,0.252,,,,9984.0,,0.0,107.0,85.5,73.0,12.50,0,-1.00,13.90*2D
$GPRMC,095420.000,A,2450.5612,N,12112.0573,E,39.42,144.9,190921,,,A*61
$RC3,095420.000,,-0.212,0.100,0.346,,,,9566.0,,0.0,107.0,86.0,73.0,12.50,0,-2.00,14.10*29
$GPRMC,095420.100,A,2450.5603,N,12112.0580,E,39.42,145.6,190921,,,A*62
$RC3,095420.100,,-0.227,0.073,0.489,,,,9220.0,,0.0,107.0,86.9,73.0,12.50,0,-2.00,14.20*20
$GPRMC,095420.100,A,2450.5603,N,12112.0580,E,39.42,146.6,190921,,,A*61
$RC3,095420.100,,-0.230,0.078,0.513,,,,8930.0,,0.4,107.0,87.1,73.0,12.50,0,-5.00,14.20*2E
$GPRMC,095420.200,A,2450.5595,N,12112.0587,E,38.88,147.9,190921,,,A*60
$RC3,095420.200,,-0.197,0.036,0.601,,,,8728.0,,0.0,107.0,87.7,72.0,12.50,0,-8.00,14.20*20
$GPRMC,095420.300,A,2450.5586,N,12112.0593,E,38.34,148.9,190921,,,A*6E
$RC3,095420.300,,-0.185,0.053,0.827,,,,8518.0,,0.0,107.0,85.9,71.0,12.50,0,-11.00,14.10*1E
$GPRMC,095420.300,A,2450.5586,N,12112.0593,E,38.34,150.4,190921,,,A*6A
$RC3,095420.300,,-0.165,0.186,0.951,,,,8342.0,,0.0,107.0,86.7,71.0,12.50,0,-13.00,14.20*1C
$GPRMC,095420.400,A,2450.5577,N,12112.0599,E,37.80,151.7,190921,,,A*6B
$RC3,095420.400,,-0.213,0.133,0.970,,,,8204.0,,0.0,107.0,85.4,70.0,12.50,0,-16.00,14.20*13
$GPRMC,095420.500,A,2450.5567,N,12112.0605,E,37.80,153.4,190921,,,A*6C
$RC3,095420.500,,-0.208,0.122,0.907,,,,8040.0,,0.0,107.0,85.6,70.0,12.50,0,-17.00,14.20*19
$GPRMC,095420.500,A,2450.5567,N,12112.0605,E,37.80,155.3,190921,,,A*6D
$RC3,095420.500,,-0.228,0.069,0.891,,,,7937.0,,0.0,107.0,85.4,70.0,12.50,0,-19.00,14.20*11
$GPRMC,095420.600,A,2450.5558,N,12112.0609,E,37.26,156.9,190921,,,A*6B
$RC3,095420.600,,-0.145,0.050,1.005,,,,7858.0,,0.0,107.0,84.2,69.0,12.50,0,-21.00,14.20*18
$GPRMC,095420.600,A,2450.5558,N,12112.0609,E,37.26,159.1,190921,,,A*6C
$RC3,095420.600,,-0.047,0.069,0.993,,,,7756.0,,0.0,107.0,83.1,69.0,12.50,0,-24.00,14.20*16
$GPRMC,095420.700,A,2450.5549,N,12112.0614,E,36.72,161.1,190921,,,A*6A
$RC3,095420.700,,-0.084,0.082,0.960,,,,7681.0,,0.0,107.0,82.5,68.0,12.50,0,-25.00,14.20*1F
$GPRMC,095420.800,A,2450.5539,N,12112.0617,E,36.18,162.7,190921,,,A*68
$RC3,095420.800,,-0.061,0.116,1.028,,,,7623.0,,0.0,107.0,83.0,67.0,12.50,0,-25.00,14.20*10
$GPRMC,095420.800,A,2450.5539,N,12112.0617,E,36.18,164.8,190921,,,A*61
$RC3,095420.800,,-0.047,0.136,1.074,,,,7586.0,,0.0,107.0,82.6,67.0,12.50,0,-27.00,14.20*16
$GPRMC,095420.900,A,2450.5529,N,12112.0619,E,36.18,166.5,190921,,,A*60
$RC3,095420.900,,-0.015,0.110,1.108,,,,7547.0,,0.8,107.0,82.1,67.0,12.50,0,-28.00,14.20*13
$GPRMC,095421.000,A,2450.5520,N,12112.0622,E,36.18,168.8,190921,,,A*6A
$RC3,095421.000,,-0.004,0.127,1.092,,,,7640.0,,30.6,107.0,82.1,67.0,12.50,0,-30.00,14.10*2E
$GPRMC,095421.000,A,2450.5520,N,12112.0622,E,35.64,170.8,190921,,,A*6B
$RC3,095421.000,,-0.038,0.110,1.037,,,,8085.0,,71.8,107.0,81.8,66.0,12.50,0,-33.00,13.90*26
$GPRMC,095421.100,A,2450.5510,N,12112.0623,E,35.10,172.5,190921,,,A*64
$RC3,095421.100,,-0.054,0.152,1.050,,,,8777.0,,88.2,107.0,81.9,65.0,12.50,0,-35.00,13.70*26
$GPRMC,095421.100,A,2450.5510,N,12112.0623,E,35.10,174.7,190921,,,A*60
$RC3,095421.100,,-0.046,0.144,0.952,,,,9344.0,,92.5,107.0,80.7,65.0,12.60,0,-38.00,13.60*21
$GPRMC,095421.200,A,2450.5500,N,12112.0624,E,35.10,177.0,190921,,,A*61
$RC3,095421.200,,-0.099,0.229,0.888,,,,9771.0,,91.8,107.0,80.5,65.0,12.70,0,-41.00,13.60*2F
$GPRMC,095421.300,A,2450.5491,N,12112.0625,E,34.56,178.6,190921,,,A*62
$RC3,095421.300,,-0.065,0.147,0.760,,,,10089.0,,92.5,107.0,79.7,64.0,12.80,0,-43.00,13.70*10
$GPRMC,095421.300,A,2450.5491,N,12112.0625,E,34.56,180.6,190921,,,A*65
$RC3,095421.300,,-0.066,0.152,0.638,,,,10354.0,,96.5,107.0,78.9,64.0,12.80,0,-44.00,13.80*1B
$GPRMC,095421.400,A,2450.5481,N,12112.0624,E,34.56,182.0,190921,,,A*66
$RC3,095421.400,,-0.063,0.135,0.489,,,,10575.0,,94.9,107.0,78.8,64.0,12.80,0,-44.00,13.70*15
$GPRMC,095421.500,A,2450.5472,N,12112.0623,E,34.56,183.8,190921,,,A*65
$RC3,095421.500,,-0.105,0.135,0.486,,,,10725.0,,98.8,107.0,78.7,64.0,12.80,0,-44.00,13.70*1F
$GPRMC,095421.500,A,2450.5472,N,12112.0623,E,34.56,185.5,190921,,,A*6E
$RC3,095421.500,,-0.025,0.210,0.476,,,,10873.0,,98.8,107.0,79.6,64.0,12.80,0,-43.00,13.70*1C
$GPRMC,095421.600,A,2450.5462,N,12112.0621,E,34.56,186.5,190921,,,A*6D
$RC3,095421.600,,-0.021,0.260,0.405,,,,10949.0,,98.8,107.0,79.4,64.0,12.80,0,-44.00,13.60*14
$GPRMC,095421.600,A,2450.5462,N,12112.0621,E,34.56,187.5,190921,,,A*6C
$RC3,095421.600,,-0.054,0.267,0.482,,,,11046.0,,98.8,107.0,79.0,64.0,12.80,0,-45.00,13.60*1C
$GPRMC,095421.700,A,2450.5453,N,12112.0619,E,34.56,188.5,190921,,,A*6B
$RC3,095421.700,,-0.095,0.325,0.508,,,,11117.0,,98.8,107.0,79.4,64.0,12.80,0,-44.00,13.70*15
